Well Name,Landing Zone,Surf Lat,Surf Long,BH Lat,BH Long,Mid Point Lat,Mid Point Long,Left Well,Right Well,Left Distance,Right Distance,Final Distance,MP Final Dist,Diff,Error
BRADFORD TRUST A UNIT 3 1513AH,WCMP A,31.73841,-102.00904,31.71565,-102.00382,31.72703,-102.00643,BRADFORD TRUST A UNIT 3 1512AH,BRADFORD TRUST A UNIT 3 1514AH,641.6745992,674.6874843,658.1810417,703.282424,45.10138227,6%
WARFIELD EAST C 103LS,SPBYL SH,31.92223333,-102.2245139,31.89218611,-102.21475,31.90720972,-102.219632,WARFIELD EAST M 102WA,WARFIELD EAST B 102LS,383.4799393,623.6590684,503.5695039,486.4455066,17.12399731,4%
ST 4043WA,WCMP A,31.98251389,-102.2119389,31.95509444,-102.2053361,31.96880417,-102.2086375,ST 4044WA,ST 4045WA,630.129431,1260.417441,945.273436,560.5680459,384.7053901,69%
MUSTANG H120UH,WCMP D,31.972125,-102.0679472,31.99783333,-102.0765361,31.98497917,-102.0722417,REBEL H115UX,CHARGER H120UH,2000,2000,2000,2000,0,0%
GBG 41/38 UNIT 0032LS,SPBYL SH,31.85316,-102.1298256,31.87951667,-102.1406453,31.86633834,-102.1352355,SCHARBAUER C 0026LS,SCHARBAUER C 0034LS,827.6712393,889.5524845,858.6118619,743.0888136,115.5230483,16%
GBG 41/38 UNIT 0033WB,WCMP A,31.85317861,-102.1297481,31.88020181,-102.1376241,31.86669021,-102.1336861,GBG 41/38 UNIT 0035WB,SCHARBAUER C 36/37 A 3621H,942.9974708,2000,1471.498735,1248.271574,223.2271607,18%
GWENDOLYN 2622LA,SPBYL SD,31.87575,-102.244552,31.89846057,-102.2509733,31.88710529,-102.2477627,GWENDOLYN 2611LA,GWENDOLYN 2525LA,1087.285279,2000,1543.642639,1602.74858,59.10594095,4%
HOGAN 1-13-D 2808H,SPBYL SH,32.0533278,-102.0739283,32.0332099,-102.0666196,32.04326885,-102.070274,HOGAN 1-13-C 2806H,RANCHLAND C UNIT 2805H,666.8297042,972.3641943,819.5969493,967.2284637,147.6315144,15%
BANAY BA 02WB,WCMP B,31.67244885,-102.2486208,31.70019065,-102.2562762,31.68631975,-102.2524485,BANAY 10WB,BANAY BC 06WB,917.8759587,1736.541167,1327.208563,1237.57995,89.62861311,7%
RIO SAN MARCOS 36-45 UNIT 1 242,,31.791895,-102.005341,,,,,BANAY 10WB,BANAY BC 06WB,917.8759587,1736.541167,1327.208563,1237.57995,89.62861311,7%
BLACKFOOT WEST UNIT 704LS,SPBYL SH,32.06873056,-102.1679333,32.04162222,-102.1595306,32.05517639,-102.163732,BLACKFOOT WEST UNIT 702LS,BLACKFOOT WEST UNIT 701LS,1299.868701,1921.958145,1610.913423,1520.231779,90.68164439,6%
SOA SCHARBAUER SOUTHEAST 0082LS,SPBYL SH,31.90211778,-102.1642111,31.93242667,-102.1726614,31.91727223,-102.1684363,SOA SCHARBAUER SOUTHEAST 0081LS,SOA SCHARBAUER SOUTHEAST 0083LS,903.3835612,955.081195,929.2323781,476.6770236,452.5553545,95%
FR UNOBTANIUM 1411 2BB,WCMP B,31.87056,-101.825582,31.90439693,-101.8376086,31.88747847,-101.8315953,FR UNOBTANIUM 1411 31BR,ODANIEL-FLOYD W1V 22H,323.3297672,641.1889681,482.2593676,575.8376969,93.57832926,16%
GWENDOLYN 2525LA,SPBYL SD,31.87881,-102.232714,31.90810026,-102.2425433,31.89345513,-102.2376287,GWENDOLYN 2514LA,GWENDOLYN 2512LA,1195.453502,2000,1597.726751,1582.2601,15.46665062,1%
HALEY J F D1 1001LH,SPBYL SH,31.84749968,-102.1610399,31.87308717,-102.1678825,31.86029343,-102.1644612,SCHARBAUER C `A` 0033LS,HALEY J F M4 1002LH,220.840524,643.9159477,432.3782359,726.847799,294.4695631,41%
FASKEN `A` 16-21 212,WCMP B,32.02360667,-101.7889492,31.99407222,-101.77998,32.00883945,-101.7844646,FASKEN H 16-21 282,FASKEN `H` 16-21 281,2000,2000,2000,2000,0,0%
JOHN BRAUN C UNIT 2 0806BH,WCMP B,31.70556686,-102.0302412,31.73733512,-102.0403072,31.72145099,-102.0352742,JOHN BRAUN C UNIT 2 0805BH,JOHN BRAUN C UNIT 2 0807BH,880.5475531,884.9662847,882.7569189,782.8907055,99.8662134,13%
JOHN BRAUN C UNIT 2 0805BH,WCMP B,31.703173,-102.03156,31.73669374,-102.0430438,31.71993337,-102.0373019,JOHN BRAUN C UNIT 2 0806BH,BRAUN JOHN C UNIT 1 0803BH,880.5475531,1119.522007,1000.03478,1160.020715,159.9859354,14%
TEXAS TEN Y PU 4022H,SPBYU SD,31.88986838,-102.0802372,31.86672055,-102.0677735,31.87829447,-102.0740054,TEXAS TEN Y PU 4021H,RIO LAVACA 17-48 UNIT 2 151,997.9584614,2000,1498.979231,1260.663179,238.3160521,19%
SCHARBAUER C 0032LS,SPBYL SH,31.90959194,-102.1469942,31.87964639,-102.1406403,31.89461917,-102.1438173,SCHARBAUER C 0026LS,SCHARBAUER C 0034LS,840.5669373,874.2340094,857.4004734,698.5707525,158.8297209,23%
SCHARBAUER C 0033WB,WCMP A,31.90961056,-102.1469164,31.88024944,-102.1380694,31.89493,-102.1424929,GBG 41/38 UNIT 0035WB,SCHARBAUER C 36/37 A 3621H,1072.417091,2000,1536.208546,2000,463.791454,23%
LINE DRIVE D 2WB,WCMP B,31.97281194,-102.15342,32.00030278,-102.1610333,31.98655736,-102.1572267,LINE DRIVE F 3WB,LINE DRIVE B 1WB,643.8206709,709.5592328,676.6899519,440.1265693,236.5633826,54%
FR UNOBTANIUM 1411 CC 6HB,WCMP B,31.870806,-101.824485,31.90516972,-101.8345917,31.88798786,-101.8295384,FR UNOBTANIUM 1411 C 5BB,FR UNOBTANIUM 1411 D 8BB,326.8347487,372.3521989,349.5934738,509.7431337,160.1496599,31%
FR CATALYST A 94 1BB,WCMP B,31.910953,-101.872946,31.88727313,-101.8652049,31.89911307,-101.8690755,FR CATALYST A 94 1BB,FR CATALYST A 94 1BB,1276.179846,1426.441386,1351.310616,675.6501779,675.6604381,100%
BRD WRIGLEY UNIT 0181WB,WCMP B,31.84697889,-102.0121639,31.86220417,-102.0198018,31.85459153,-102.0159829,MIDLAND AC/WYLIE B 1308 1308HB,MIDLAND AC/WYLIE B 1307 1307HB,863.5447322,1527.243037,1195.393885,1657.945366,462.5514811,28%
WINDHAM TXL C10 5316LH,SPBYL SH,31.71153889,-102.12315,31.68923056,-102.1151722,31.70038473,-102.1191611,WINDHAM TXL C11 5305LH,WINDHAM `A` 103LH,256.2173541,294.6255154,275.4214348,768.5599868,493.138552,64%
BULLDOG H140UX,,31.97558333,-102.0472139,31.99808056,-102.05465,31.98683195,-102.050932,WINDHAM TXL C11 5305LH,WINDHAM `A` 103LH,256.2173541,294.6255154,275.4214348,768.5599868,493.138552,64%
WINDHAM TXL C4 5307LH,SPBYL SH,31.71173611,-102.1198333,31.689925,-102.1121972,31.70083056,-102.1160153,WINDHAM TXL C7 5317LH,WINDHAM TXL C6 5318LH,314.85179,349.1560055,332.0038977,577.3437364,245.3398387,42%
WINDHAM TXL C3 5308BH,WCMP B,31.71234722,-102.1174278,31.69071944,-102.1100528,31.70153333,-102.1137403,WINDHAM TXL C5 5307BH,DAVIDSON RAB H2701 2703L,667.1867543,1066.147443,866.6670987,977.7308327,111.063734,11%
CASSELMAN 16 8UL,SPBYL SH,32.04019722,-102.2232028,32.02815278,-102.2173361,32.034175,-102.2202694,CASSELMAN16 9LL,CUMBERLAND WEST E 3401LS,431.828956,543.7566488,487.7928024,344.0595233,143.7332791,42%
CASSELMAN4 12UL,SPBYL SH,32.066725,-102.2403389,32.05391111,-102.2363611,32.06031805,-102.23835,CASSELMAN4 13LL,CASSELMAN4 11LL,386.9102297,394.4666147,390.6884222,210.3466674,180.3417548,86%
TIPPETT JUNE 1213 HZ UNIT 11HM,WCMP B,31.70709194,-102.1720981,31.68473306,-102.1657689,31.6959125,-102.1689335,PEGASUS FIELD UNIT 3 226H,TIPPETT JUNE 1213 HZ UNIT 9HM,286.0386231,528.1292425,407.0839328,521.1730033,114.0890705,22%
TIPPETT JUNE 1213 HZ UNIT 16HS,SPBYL SH,31.70650936,-102.1744875,31.68437167,-102.1669908,31.69544052,-102.1707392,TIPPETT JUNE 1213 HZ UNIT 18HS,TIPPETT JUNE 1213 HZ UNIT 14HS,480.7501946,551.8817575,516.315976,366.59237,149.723606,41%
MASK HZ UNIT 1016H,SPBYL SD,32.06538929,-102.1194527,32.03818421,-102.1098919,32.05178675,-102.1146723,MASK HZ UNIT 1014H,DIAMOND RIO 9-16-A 2701H,454.7434238,2000,1227.371712,1133.628613,93.74309883,8%
LHS RANCH 27-22 ALLOCATION 2201 2201BH,WCMP B,31.70770667,-101.9004969,31.73758,-101.90839,31.72264334,-101.9044435,LHS RANCH 27-21 ALLOCATION 2108 2108BH,SHACKELFORD-CUNNINGHAM 9M 13H,656.5853165,684.6980917,670.6417041,624.6983535,45.94335062,7%
BRD ASTRODOME UNIT 0126WA,WCMP A,31.84893833,-101.9956028,31.82565611,-101.9832864,31.83729722,-101.9894446,BRD ASTRODOME UNIT 0124WA,BRD ASTRODOME UNIT 0132WA,805.6880137,874.524997,840.1065054,649.0180775,191.0884279,29%
WINDHAM 11G 15HC,SPBYU SD,31.71571667,-102.0850472,31.74019722,-102.0927556,31.72795695,-102.0889014,WINDHAM 11X 12HC,WINDHAM 14F 27HC,673.9719664,2000,1336.985983,1193.592644,143.3933386,12%
DWIGHT-MIDKIFF 25Q 17H,WCMP B,31.89663313,-102.0097085,31.92321503,-102.0176654,31.90992408,-102.013687,DWIGHT-MIDKIFF 25R 18H,BABB 25A 1H,840.7071175,1775.454136,1308.080627,1215.205169,92.87545835,8%
BRD ASTRODOME UNIT 0133WB,WCMP B,31.84952111,-101.98944,31.82649706,-101.9792431,31.83800909,-101.9843416,BRD ASTRODOME UNIT 0131WB,BRD ASTRODOME UNIT 0135WB,854.4883206,873.5331571,864.0107388,456.9173725,407.0933663,89%
SALLY 26GG 107H,WCMP A,31.93170998,-102.0032525,31.90569148,-101.9978196,31.91870073,-102.0005361,SALLY 26HH 108H,SALLY 26II 109H,830.3406306,1602.276298,1216.308464,623.1061746,593.2022894,95%
TRAILAND B UNIT 3902LS,SPBYL SH,31.97279167,-102.1913422,31.99460278,-102.1979194,31.98369723,-102.1946308,TRAILAND A UNIT 3903LS,TRAILAND B UNIT 3901LS,664.6784213,676.9029128,670.790667,894.8264253,224.0357583,25%
FR CATALYST F 94 6BB,WCMP B,31.883268,-101.861794,31.89218585,-101.8647658,31.88772693,-101.8632799,FR CATALYST A 94 1BB,FR CATALYST A 94 1BB,725.3244312,1797.033241,1261.178836,2000,738.821164,37%
TXL 35 UNIT 1 3801BH,WCMP B,31.69544,-101.98189,31.66237,-101.97347,31.678905,-101.97768,TXL 35 UNIT 1 3802BH,TXL 35 UNIT 1 3803BH,707.6433708,1407.927183,1057.785277,859.5879221,198.1973549,23%
TEXAS TEN Y PU 3940H,WOLFCAMP,31.89681345,-102.0534504,31.8714452,-102.0473893,31.88412933,-102.0504199,TEXAS TEN Y POOLED UNIT 3904H,TEXAS TEN Y PU 3905H,326.5297466,505.7671135,416.1484301,430.4286022,14.28017214,3%
TXL 35 UNIT 1 3821SH,SPBYL SH,31.69539,-101.98207,31.66228,-101.97352,31.678835,-101.977795,TXL 35 UNIT 1 3842SH,TXL 35 UNIT 1 3823SH,582.4273333,1180.912548,881.6699409,872.7893779,8.880563016,1%
FR CATALYST AA 94 9HB,WCMP B,31.91118444,-101.8719389,31.88384556,-101.8629744,31.897515,-101.8674567,FR CATALYST A 94 1BB,WTH 21-16 F 261,387.568495,512.0272403,449.7978677,344.401641,105.3962267,31%
BANKHEAD 4-33 UNIT 2 252,WCMP A,31.97302111,-102.0992011,31.99311167,-102.1079731,31.98306639,-102.1035871,BANKHEAD 4-33 UNIT 2A 261,WINDOWPANE 4-33 UNIT 1 231,706.2768822,1379.489076,1042.882979,1714.130481,671.2475019,39%
CRAWFORD TANK FARM NW7Q 17H,WCMP B,31.9743146,-102.0341532,32.0075863,-102.0442366,31.99095045,-102.0391949,CRAWFORD TANK FARM NW7P 16H,CRAWFORD-TANK FARM NW7R 18H,832.5496145,859.6291406,846.0893775,432.9354693,413.1539082,95%
EPLEY LB NS 39-46 08 208H,WCMP B,32.05767083,-101.8881992,32.031244,-101.879908,32.04445742,-101.8840536,EPLEY LB NS 39-46 05 205H,OLDHAM-GRAHAM 35B 2H,1975.853703,2000,1987.926851,2000,12.073149,1%
MUSTANG H150UH,WCMP C,31.96991111,-102.0757139,32.00546944,-102.0858889,31.98769028,-102.0808014,SOUTH CURTIS RANCH 0401CP,CURTIS RANCH SOUTH 3528DH,2000,2000,2000,2000,0,0%
DONALD L HUTT FEE W20M 13H,WCMP A,31.82244599,-101.9496321,31.8454698,-101.9613667,31.83395789,-101.9554994,FC `G` 42-43WSL (ALLOCATION) 8UA,DONALD L HUTT FEE W20N 14H,625.599079,849.8893131,737.7441961,636.1355933,101.6086028,16%
CRAWFORD TANK FARM NE7R 118H,WCMP B,31.97442892,-102.0253206,32.01016326,-102.03382,31.99229609,-102.0295703,CRAWFORD TANK FARM NE7Q 117H,ELKINS-ATRELLE 31-42 242,918.8836388,1568.727197,1243.805418,659.7243546,584.0810634,89%
FAYTH 38E 2HE,SPBYL SH,31.73280556,-102.1290667,31.75950278,-102.1380556,31.74615417,-102.1335611,FAYTH 38F 4HF,FAYTH 38E 1HF,357.5182962,362.1924594,359.8553778,402.4500549,42.59467715,11%
FAYTH 38F 4HF,SPBYL SH,31.73341389,-102.1264556,31.75977222,-102.1369472,31.74659305,-102.1317014,FAYTH 38F 5HE,FAYTH 38E 2HE,308.3564565,357.5182962,332.9373764,475.7532874,142.815911,30%
SHACKELFORD W31E 5H,WOLFCAMP,31.79502404,-101.9251855,31.76666923,-101.9143253,31.78084664,-101.9197554,SHACKELFORD W31F 6H,SHACKELFORD W31D 4H,808.1829965,813.4875327,810.8352646,420.2335747,390.6016899,93%
BENGE MARION V ESTATE A1 2501LH,SPBYL SH,31.795547,-102.1098895,31.82520001,-102.1183092,31.81037351,-102.1140994,SCHARBAUER MARY B4 1202LH,BENGE MARION V ESTATE A3 2502LH,648.7785466,657.7221067,653.2503267,556.974231,96.27609573,17%
BRD WRIGLEY UNIT 0211WA,WOLFCAMP,31.84826639,-102.0018639,31.87885194,-102.0142175,31.86355916,-102.0080407,TEXAS TEN Y POOLED UNIT 3702HR,BRD WRIGLEY UNIT 0191WB,415.18804,436.4322841,425.8101621,487.8139817,62.00381957,13%
BRD WRIGLEY UNIT 0212WA,WOLFCAMP,31.84828361,-102.0017861,31.87954028,-102.0112672,31.86391194,-102.0065267,TEXAS TEN Y POOLED UNIT 3701H,BRD WRIGLEY UNIT 0193WB,295.843726,464.4764908,380.1601084,739.2656106,359.1055022,49%
WAFFLE IRON H230MS,SPBYU SD,32.00658833,-102.0471211,32.02853611,-102.053,32.01756222,-102.0500606,WAFFLE IRON H120WB,WAFFLE IRON H240MS,646.8344013,653.6228504,650.2286258,736.2996172,86.07099141,12%
BENGE MARION V ESTATE A9 2504BH,WCMP B,31.79473333,-102.1146333,31.82380998,-102.1237034,31.80927166,-102.1191684,BENGE MARION V ESTATE A7 2503BH,BENGE MARION V ESTATE A18 2513CH,562.0146686,831.8505462,696.9326074,768.6792226,71.74661517,9%
COMANCHEROS 19-31 3102 3102BH,WCMP B,31.86377,-101.89323,31.82712,-101.88082,31.845445,-101.887025,COMANCHEROS 19-31 3101 3101BH,HUTT DONALD L FEE 1606H,709.4469548,2000,1354.723477,1391.585978,36.86250145,3%
COMANCHEROS 19-31 3102 3112AH,WOLFCAMP,31.86382,-101.89308,31.82738,-101.8798,31.8456,-101.88644,COMANCHEROS 19-31 3103 3103BH,COMANCHEROS 19-31 3103 3113AH,288.5230097,684.8164564,486.6697331,530.74871,44.07897687,8%
COMANCHEROS 19-31 3103 3113AH,WOLFCAMP,31.86438,-101.89109,31.82788,-101.87767,31.84613,-101.88438,COMANCHEROS 19-31 3104 3104BH,COMANCHEROS 19-31 3103 3103BH,240.8953253,411.0297143,325.9625198,354.7483367,28.78581689,8%
RANCHLAND C UNIT 4205H,WCMP A,32.00294573,-102.0555392,32.03221192,-102.0696846,32.01757883,-102.0626119,HOGAN 1-13-D 4207H,HOGAN 1-24-F 4211H,651.0650654,2000,1325.532533,2000,674.467467,34%
CUNNINGHAM 37A 1H,WCMP B,31.78903717,-101.9387437,31.7623482,-101.9325829,31.77569269,-101.9356633,CMC PEONY A 0061WB,CMC PEONY C 0064WB,409.0010799,630.542322,519.7717009,1198.790148,679.0184468,57%
GOLLADAY 2HB,WCMP B,31.97874519,-101.9384543,31.96081149,-101.9328711,31.96977834,-101.9356627,GOLLADAY 1HB,GOLLADAY 3HB,588.4309431,636.6065293,612.5187362,463.4171174,149.1016188,32%
RIO SAN GABRIEL 28-29 UNIT 1 141,SPBYL SH,31.80470639,-102.0827847,31.77531,-102.0733375,31.7900082,-102.0780611,RIO SAN GABRIEL 28-29 UNIT 2 152,RIO SAN GABRIEL 28-29 UNIT 2 162,740.7117825,1419.161536,1079.936659,583.5280074,496.4086516,85%
BOONE-COFFEE 50 105HB,WOLFCAMP,31.91008944,-101.7768789,31.93195278,-101.7828833,31.92102111,-101.7798811,BOONE-COFFEE 50 105HA,BOONE-COFFEE 60 106HA,343.1235124,347.3084977,345.216005,320.240007,24.97599804,8%
TXL-SHACKELFORD 37J 10H,WCMP B,31.79125849,-101.9332134,31.76435716,-101.9240609,31.77780783,-101.9286372,TXL-SHACKELFORD 37K 11H,TXL-SHACKELFORD 37L 12H,696.314608,1631.980409,1164.147509,595.7903623,568.3571467,95%
TXL-SHACKELFORD 37G 7H,WOLFCAMP,31.79121428,-101.9333997,31.76407367,-101.9252722,31.77764397,-101.929336,TXL-SHACKELFORD 37H 8H,TXL-SHACKELFORD 37I 9H,750.3712339,1479.856579,1115.113906,572.4806995,542.6332065,95%
TXL-SHACKELFORD 37H 8H,WOLFCAMP,31.79122906,-101.9333368,31.76462153,-101.9229399,31.7779253,-101.9281384,TXL-SHACKELFORD 37I 9H,TXL-SHACKELFORD 37G 7H,729.4855811,750.3712339,739.9284075,379.8546378,360.0737697,95%
SHACKELFORD 3422H,WCMP D,31.83197317,-101.8291069,31.85840169,-101.8399945,31.84518743,-101.8345507,SHACKELFORD 3423H,SHACKELFORD 33U 21H,747.7322258,765.4894449,756.6108353,400.5656907,356.0451446,89%
PARKS 0417AH,WCMP A,31.86461472,-102.2198597,31.83276373,-102.2107341,31.84868923,-102.2152969,PARKS 0416AH,PARKS 0416AH,948.406177,2000,1474.203088,922.3876163,551.8154717,60%
PRESTON E13G 107H,WOLFCAMP,31.75912589,-101.8671338,31.73380433,-101.8621393,31.74646511,-101.8646366,PRESTON A 3609H,PRESTON A 3608H,311.679338,562.9037038,437.2915209,643.3656387,206.0741178,32%
PRESTON E13I 109H,WOLFCAMP,31.7591554,-101.8670096,31.73491172,-101.856861,31.74703356,-101.8619353,PRESTON A 3610H,PRESTON E13H 108H,725.7392769,859.8227161,792.7809965,651.4735649,141.3074316,22%
BOONE-COFFEE 50 205HL,SPBYL SH,31.91012417,-101.7767217,31.93171111,-101.7839278,31.92091764,-101.7803248,BOONE-COFFEE 40 204HL,BOONE-COFFEE 60 206HL,668.3292201,673.855911,671.0925655,668.834275,2.258290476,0%
WTH 10-3 A 215,WCMP D,31.88833583,-101.8344342,31.91807528,-101.8434378,31.90320556,-101.838936,TURNER `H` R40 3902H,ODANIEL E T 2H,2000,2000,2000,2000,0,0%
SCHARBAUER C 0022LS,SPBYL SH,31.90757833,-102.1551006,31.877665,-102.1490017,31.89262167,-102.1520512,GBG 41/38 UNIT 0024LS,SCHARBAUER C 0024LS,814.6336304,940.2515352,877.4425828,697.7256369,179.7169459,26%
SCHARBAUER C 0071LS,SPBYL SH,31.90662778,-102.1654975,31.88202167,-102.1609103,31.89432473,-102.1632039,SCHARBAUER C 0065LS,SCHARBAUER C 0072LS,458.6612057,463.6901957,461.1757007,367.8966749,93.27902583,25%
RIO SAN GABRIEL 28-29 UNIT 2 183,SPBYU SD,31.80322861,-102.0893992,31.77365556,-102.0812442,31.78844209,-102.0853217,WINDHAM 11X 12HC,WINDHAM 11G 15HC,2000,2000,2000,2000,0,0%
FR CATALYST A 94 20HA,WCMP A,31.882809,-101.863804,31.91111861,-101.8731433,31.89696381,-101.8684737,FR CATALYST FB 94 21HA,VALENCE E 11HA,1335.960505,2000,1667.980253,588.9289629,1079.05129,183%
FR CATALYST F 94 17HA,WCMP A,31.911416,-101.870932,31.88415843,-101.8621067,31.89778722,-101.8665194,WTH 21-16 G1 272,FR CATALYST E 94 16HA,366.8203992,1343.464497,855.1424482,650.1545531,204.9878951,32%
GERMANIA 45 22H,WOLFCAMP,32.06312125,-101.8040369,32.09147833,-101.8169443,32.07729979,-101.8104906,GERMANIA 45 12H,GERMANIA 45 23H,800.8751883,855.4217381,828.1484632,651.7395303,176.4089329,27%
GERMANIA 45 10H,WCMP A,32.0600979,-101.8115646,32.0897466,-101.8245241,32.07492225,-101.8180444,GERMANIA 42 12H,BRADLEY 2 102,2000,2000,2000,2000,0,0%
PEARL JAM 13LS,SPBYL SH,31.99716291,-102.2662934,32.0155503,-102.2694209,32.00635661,-102.2678572,PEARL JAM 14LS,PEARL JAM 12LS,273.9648223,389.694444,331.8296331,270.9224804,60.90715273,22%
NOBLES 3112AH,WCMP A,32.00445,-102.25834,31.97486,-102.24957,31.989655,-102.253955,KEMMER 4219H,NOBLES 3113AH,792.8470079,979.898428,886.372718,1397.475134,511.1024157,37%
TXL 9 UNIT 1 0401BH,WCMP B,31.72173,-102.02705,31.75282,-102.0386,31.737275,-102.032825,TXL 9 UNIT 1 0402BH,TXL 9 UNIT 2 0405BH,851.1897146,2000,1425.594857,1337.333666,88.2611909,7%
TXL 9 UNIT 1 0423SH,SPBYL SH,31.72274,-102.023888,31.73686818,-102.0282865,31.72980409,-102.0260872,JOHN BRAUN C UNIT 2 0848SH,JOHN BRAUN C UNIT 2 0827SH,2000,2000,2000,2000,0,0%
TXL 9 UNIT 1 0414AH,WCMP A,31.72476,-102.02257,31.75437,-102.03188,31.739565,-102.027225,TXL 9 UNIT 1 0413AH,TXL 9 UNIT 1 0412AH,860.9492789,1772.626412,1316.787845,1253.966394,62.82145118,5%
DWIGHT-MIDKIFF 25N 14H,WOLFCAMP,31.89659002,-102.0098953,31.92299349,-102.0185916,31.90979176,-102.0142435,DWIGHT-MIDKIFF 25O 15H,DWIGHT-MIDKIFF 25M 13H,794.5520278,869.4298511,831.9909394,425.6714078,406.3195316,95%
DWIGHT-MIDKIFF 25O 15H,WOLFCAMP,31.89660417,-102.0098332,31.92356143,-102.0161138,31.9100828,-102.0129735,DWIGHT-MIDKIFF 25N 14H,BABB 25J 10H,794.5520278,1042.908747,918.7303874,622.3894904,296.340897,48%
KYLA C 21JM,SPBYL SD,31.971406,-101.969964,31.944263,-101.960844,31.9578345,-101.965404,KYLA E 32JM,GUNS UP N 32-29 2614H,1030.255542,2000,1515.127771,1498.276402,16.85136938,1%
TXL 33 UNIT 1 3301BH,WOLFCAMP,31.69771056,-102.0211189,31.66858232,-102.0113615,31.68314644,-102.0162402,TXL 33 UNIT 1 3311 3311AH,COWDEN 32D 1HL,318.6304306,2000,1159.315215,2000,840.684785,42%
TXL 33 UNIT 1 3321SH,SPBYL SH,31.69775028,-102.020965,31.66865,-102.01138,31.68320014,-102.0161725,TXL 20 UNIT 2 2925SH,TXL 20 UNIT 1 2944SH,2000,2000,2000,2000,0,0%
KYLA E 32LB,SPBYL SH,31.970988,-101.973042,31.943525,-101.96411,31.9572565,-101.968576,KYLA C 21LB,KYLA 4018LA,1032.470626,2000,1516.235313,1103.99198,412.2433333,37%
WTH 10-3 B 221R,WCMP A,31.88825417,-101.8344061,31.91779874,-101.8451602,31.90302646,-101.8397831,WTH 10-3 A 212,WTH 10-3 C1 231,546.5184702,778.3927857,662.4556279,336.7603828,325.6952451,97%
TRAILAND B UNIT 3907WA,WCMP A,31.97186944,-102.1951694,31.99338611,-102.2026,31.98262777,-102.1988847,TRAILAND B UNIT 3908WA,TRAILAND B UNIT 3901WA,600.0474167,703.825878,651.9366474,427.2435318,224.6931156,53%
DRIVER-SCHROCK 1423 A 1HS,SPBYL SH,31.77782528,-101.7944072,31.75729361,-101.7897186,31.76755945,-101.7920629,DRIVER-SCHROCK 1423 A 4HS,SCHROCK W M 2326 14HS,339.9236232,2000,1169.961812,1107.421472,62.54033971,6%
JW (SA) Q 740LS,SPBYL SH,31.8211225,-102.079415,31.84728889,-102.0861,31.8342057,-102.0827575,JW (SA) R 741LS,GBG CRONUS 41-5 C 0224LS,219.1022855,984.0946983,601.5984919,2000,1398.401508,70%
DRIVER-SCHROCK 1423 C 8HA,WCMP A,31.77863306,-101.7907465,31.75835966,-101.785092,31.76849636,-101.7879193,DRIVER-SCHROCK 1423 B 6HA,DRIVER - SCHROCK 1423 EAST D 10HA,834.8067089,895.2517663,865.0292376,703.2027753,161.8264623,23%
ORGANIC CC 6HB,WCMP B,31.849745,-101.817066,31.87126861,-101.8236542,31.86050681,-101.8203601,ORGANIC C 5BB,ORGANIC D 8BB,322.58348,327.2911321,324.937306,599.3215101,274.3842041,46%
TXL 9 UNIT 2 0425SH,SPBYL SH,31.72524444,-102.0204389,31.75459185,-102.0306477,31.73991815,-102.0255433,TXL 9 UNIT 1 0444SH,TXL 9 UNIT 1 0423SH,545.5030465,1025.432456,785.4677514,888.8189875,103.3512361,12%
GERMANIA SPRABERRY UNIT 4201H,SPBYL SD,32.0528809,-101.8446043,32.0825256,-101.8529782,32.06770325,-101.8487913,SOTO 43-7 (ALLOCATION-3SH) 4JM,COSPER 37-48 WSL 174,2000,2000,2000,2000,0,0%
DAVIDSON 23C 9HM,WCMP B,31.67026444,-102.0790364,31.69574167,-102.0878472,31.68300306,-102.0834418,WINDHAM `11C` (ALLOCATION) 12H,DAVIDSON 23A 1HM,505.084399,1074.838573,789.9614859,1551.687487,761.7260013,49%
PRESTON S31N 114H,WCMP B,31.711276,-101.834676,31.6814598,-101.8261005,31.6963679,-101.8303883,PRESTON S31P 116H,LEO 8-5-A 4401H,788.5706362,2000,1394.285318,1212.071278,182.2140404,15%
HALEY J F M4 1002LH,SPBYL SH,31.84552222,-102.160775,31.8726074,-102.1698831,31.85906481,-102.1653291,HALEY J F M5 1013LH,SCHARBAUER C `A` 0033LS,326.0183006,426.5705227,376.2944116,503.8520364,127.5576248,25%
TEXAS TEN-DEAVENPORT W39A 1H,WCMP B,31.8970778,-102.0578889,31.9269361,-102.0669639,31.91200695,-102.0624264,TEXAS TEN-YATER 39D 104H,ARICK-STOUT 36M 13H,2000,2000,2000,1965.268101,34.73189927,2%
TEXAS TEN-DEAVENPORT E39C 103H,WOLFCAMP,31.89533704,-102.0503477,31.92835,-102.0609389,31.91184352,-102.0556433,TEXAS TEN-DEAVENPORT E39A 101H,TEXAS TEN-DEAVENPORT W39B 2H,729.7877615,1674.735086,1202.261424,914.7654298,287.4959942,31%
HILL 30-19 221,WCMP B,31.90424444,-102.1066611,31.93055278,-102.1168044,31.91739861,-102.1117328,HILL 30-19 211,HILL 30-19 231,522.2391988,624.874114,573.5566564,582.0045252,8.447868797,1%
HALEY J F M1 1003LH,SPBYL SH,31.84506667,-102.1630842,31.87208761,-102.1719786,31.85857714,-102.1675314,SCHARBAUER C `A` 0032LS,HALEY J F M5 1013LH,216.1340104,350.194228,283.1641192,462.5648939,179.4007747,39%
TXL 20 UNIT 1 2942SH,SPBYL SH,31.70874722,-102.0400017,31.67925,-102.03037,31.69399861,-102.0351859,TXL 20 UNIT 1 2921SH,TXL 20 UNIT 1 2923SH,673.4564688,706.7030017,690.0797352,714.0169509,23.93721575,3%
TXL 20 UNIT 1 2912AH,WCMP A,31.7108047,-102.0387405,31.67944,-102.02934,31.69512235,-102.0340403,TXL 20 UNIT 1 2913AH,TXL 20 UNIT 1 2911AH,648.4578027,651.4770961,649.9674494,661.9247568,11.95730737,2%
TXL 20 UNIT 1 2913AH,WCMP A,31.71122361,-102.0369397,31.67986,-102.02731,31.69554181,-102.0321249,TXL 20 UNIT 1 / UNIT 2 2914AH,TXL 20 UNIT 1 2912AH,620.1227433,648.4578027,634.290273,736.5168697,102.2265967,14%
WARFIELD WEST K 202WA,WCMP A,31.9204,-102.2349778,31.88993333,-102.2248528,31.90516667,-102.2299153,WARFIELD WEST J 203WA,WARFIELD WEST I 204WA,671.9052514,1412.514428,1042.20984,721.4978867,320.7119533,44%
WTH 10-3 H 282,WCMP A,31.88344444,-101.8487417,31.9146613,-101.8584762,31.89905287,-101.853609,WTH 10-3 G 272,ACTINIDE 2HA,422.9182495,800.2213516,611.5698006,365.7654192,245.8043814,67%
BEAL-SNYDER W35J 10H,WCMP A,32.063249,-101.883742,32.07350021,-101.8896186,32.06837461,-101.8866803,BEAL-SNYDER W35J 10H,BEAL-SNYDER W35K 11H,2000,2000,2000,2000,0,0%
LYNCH-TIPPETT 4801 C 3HM,WCMP B,31.72838722,-102.1823947,31.7052475,-102.1746519,31.71681736,-102.1785233,LYNCH - TIPPETT 4801 B 2HM,LYNCH - TIPPETT 4801 A 1HM,687.4919327,1300.289966,993.8909493,1107.82933,113.9383808,10%
HAAG HZ UNIT 13WA,WCMP A,32.05763364,-102.2829716,32.02970561,-102.2738774,32.04366963,-102.2784245,HAAG HZ UNIT 15WA,MIDKIFF 1WA,643.9335708,1279.40172,961.6676456,1155.9151,194.2474546,17%
LYNCH - TIPPETT 4801 E 13HS,SPBYL SH,31.72927917,-102.1787464,31.70647722,-102.1696075,31.7178782,-102.174177,LYNCH - TIPPETT 4801 F 16HS,LYNCH - TIPPETT 4801 E 14HS,278.5463745,466.604629,372.5755017,545.6545324,173.0790307,32%
LYNCH - TIPPETT 4801 F 6HM,WCMP B,31.72932441,-102.1785609,31.70667444,-102.1688097,31.71799943,-102.1736853,LYNCH-TIPPETT 4801 C 3HM,LYNCH - TIPPETT 4801 B 2HM,1886.110953,2000,1943.055476,1754.902408,188.1530681,11%
TXL STATE R A1 301LH,SPBYL SH,31.6535466,-102.1659835,31.68185236,-102.1757592,31.66769948,-102.1708714,TIPPETT JUNE 1213 HZ UNIT 4HS,TXL STATE U A3 502LH,453.3770814,651.7828748,552.5799781,1180.755797,628.1758191,53%
TXL 33 UNIT 1 3311 3311AH,WOLFCAMP,31.69773139,-102.0210392,31.66838,-102.01236,31.6830557,-102.0166996,TXL 33 UNIT 1 3301BH,COWDEN 32D 1HL,318.6304306,2000,1159.315215,2000,840.684785,42%
BRADFORD TRUST B UNIT 1 1213AH,WCMP A,31.72206767,-101.9709058,31.75144308,-101.9782159,31.73675538,-101.9745608,BRADFORD TRUST B UNIT 1 1212AH,BRADFORD TRUST B UNIT 2 1215AH,826.461604,1010.232124,918.3468637,1021.663879,103.3170156,10%
SOA SCHARBAUER SOUTHEAST 0124JM,SPBYL SD,31.89810806,-102.1828484,31.92805,-102.1906722,31.91307903,-102.1867603,SOA SCHARBAUER SOUTHEAST 0122JM,SOA SCHARBAUER SOUTHEAST 0126JM,882.1820396,890.8785157,886.5302776,463.2583899,423.2718877,91%
DRIVER - SCHROCK 1423 EAST D 10HA,WCMP A,31.77867444,-101.7905595,31.75894083,-101.7822874,31.76880764,-101.7864235,DRIVER-SCHROCK 1423 C 8HA,DRIVER-SCHROCK 1423 B 6HA,895.2517663,1729.822217,1312.536992,941.9330224,370.6039696,39%
BULLDOG H110WB,WCMP B,31.97653056,-102.04315,32.00220556,-102.0488639,31.98936806,-102.0460069,CRAWFORD TANK FARM NW7P 16H,CRAWFORD TANK FARM NW7Q 17H,1895.995583,2000,1947.997792,1879.945387,68.05240536,4%
CARMANITA 04WA,WCMP A,31.6682639,-102.2659278,31.6958194,-102.27395,31.68204165,-102.2699389,CARMANITA 10WA,CARMANITA 16WA,856.3507567,1743.383573,1299.867165,1070.167838,229.6993271,21%
DAVIDSON 36X 6H,WOLFCAMP,31.67495833,-102.0519583,31.65683611,-102.045625,31.66589722,-102.0487917,DAVIDSON 36X 4HK,DAVIDSON 36G 3H,626.7076898,929.9831088,778.3453993,532.9607773,245.384622,46%
DAVIDSON 36X 8H,SPBYL SD,31.67501389,-102.0517278,31.65703333,-102.045625,31.66602361,-102.0486764,DAVIDSON 36G 1H,E DAVIDSON 48A 7HE,981.8884767,2000,1490.944238,1350.338163,140.6060747,10%
BRADFORD TRUST A UNIT 2 0327SH,SPBYL SH,31.73385,-102.00125,31.75913,-102.01056,31.74649,-102.005905,BRADFORD TRUST A UNIT 2 0346SH,BRADFORD TRUST A UNIT 2 0348SH,555.1362706,569.6202965,562.3782836,403.2442002,159.1340834,39%
SHACKELFORD W39E 5H,WCMP A,31.8296032,-101.8283698,31.8035873,-101.8183784,31.81659525,-101.8233741,SHACKELFORD W39F 6H,SHACKELFORD W39D 4H,822.7824791,885.2516425,854.0170608,449.3818751,404.6351857,90%
WINDHAM 14EE 23HJ,WCMP A,31.69493917,-102.0830392,31.71803611,-102.0899833,31.70648764,-102.0865113,WINDHAM 14D 18HJ,WINDHAM 14X 3HK,771.8412262,1783.07342,1277.457323,1092.387057,185.0702658,17%
WINDHAM 14F 27HC,SPBYU SD,31.69573889,-102.0797444,31.71871667,-102.0871528,31.70722778,-102.0834486,WINDHAM 14EE 21HC,WINDHAM 14D 16HC,958.5054932,1968.723425,1463.614459,1514.367582,50.75312281,3%
LOCKLAR-HILL 26L UNIT 7H,WCMP B,31.926525,-102.0551222,31.9012778,-102.0495333,31.9139014,-102.0523277,LOCKLAR-HILL 26L UNIT 9H,LOCKLAR-HILL 26L UNIT 11H,824.8972411,1639.009663,1231.953452,645.9676813,585.9857707,91%
CLARK 8 405,WCMP B,31.72863804,-101.8858252,31.75636556,-101.8924532,31.7425018,-101.8891392,CLARK 5 403,CLARK 6 103,676.5567845,2000,1338.278392,1168.740066,169.5383259,15%
WTH 21-16 B 221,WCMP B,31.8594875,-101.8463225,31.88573861,-101.8535606,31.87261306,-101.8499416,WTH 21-16 F 261,FR CATALYST AA 94 9HB,2000,2000,2000,1494.924199,505.0758012,34%
BANAY AE 07WB,WCMP B,31.7030019,-102.2419329,31.683248,-102.2321089,31.69312495,-102.2370209,BANAY AD 05WB,DORCUS JANEY (SA) A 1833WB,879.5024407,2000,1439.75122,1054.793795,384.9574252,36%
TXL 35 UNIT 1 3842SH,SPBYL SH,31.69386,-101.97958,31.6627,-101.97171,31.67828,-101.975645,TXL 35 UNIT 1 3821SH,TXL 35 UNIT 1 3823SH,582.4273333,598.9494109,590.6883721,525.1132463,65.57512582,12%
ODANIEL-FLOYD E1B 202H,WCMP A,31.94245,-101.842578,31.905988,-101.832572,31.924219,-101.837575,FR UNOBTANIUM 1411 D 7AR,FR UNOBTANIUM 1411 E 10HA,407.517909,420.7352556,414.1265823,926.5126581,512.3860758,55%
KATIE STATE 1109AH,SPBYL SH,31.92742778,-102.2687389,31.90355833,-102.2614417,31.91549306,-102.2650903,KATIE STATE 1108SH,KATIE STATE 1110LH,263.478806,377.9513959,320.7151009,323.6401074,2.925006514,1%
FR UNOBTANIUM 1411 F 12HB,WCMP B,31.87176056,-101.8205011,31.90584028,-101.8304089,31.88880042,-101.825455,FR UNOBTANIUM 1411 E 11BB,ODANIEL-FLOYD E1C 203H,297.3337698,379.865856,338.5998129,755.3097809,416.709968,55%
HALL-PORTER 621-596 A 211,WCMP A,31.95035,-101.9725569,31.97769139,-101.9784742,31.9640207,-101.9755156,HALL-PORTER 621-596 B 224,HALL-PORTER 621-596 C 233,776.7428732,1562.682521,1169.712697,787.2497162,382.4629808,49%
CARMANITA 24LS,SPBYL SH,31.66716566,-102.2709665,31.69448159,-102.2808178,31.68082363,-102.2758922,CARMANITA 30LS,CARMANITA 18LS,864.6149429,907.4945282,886.0547356,878.8475984,7.207137182,1%
HALL-PORTER 621-596 B 122,SPBYL SH,31.95029667,-101.9727922,31.97740472,-101.9797892,31.96385069,-101.9762907,HALL-PORTER 621-596 `C` 132,HALL-PORTER 621-596 D 142,757.6770739,1539.68664,1148.681857,890.5519275,258.1299295,29%
HALL-PORTER 621-596 B 224,WCMP A,31.95027972,-101.97287,31.97716,-101.9809053,31.96371986,-101.9768877,HALL-PORTER 621-596 A 211,HALL-PORTER 621-596 C 233,776.7428732,785.9397095,781.3412914,567.9830833,213.3582081,38%
HALL-PORTER 621-596 D 142,SPBYL SH,31.94983972,-101.9748417,31.97635639,-101.9846097,31.96309806,-101.9797257,HALL-PORTER 621-596 `C` 132,HALL-PORTER 621-596 B 122,782.2639315,1539.68664,1160.975286,756.203297,404.771989,54%
RIO NUECES 37-44 UNIT 2 281,WCMP A,31.787087,-102.028696,31.756902,-102.021723,31.7719945,-102.0252095,RIO NUECES 37-44 UNIT 2 271,BRADFORD TRUST A UNIT 1 0314AH,923.4470012,1503.894494,1213.670748,689.3230123,524.3477357,76%
GRIDIRON N006MS,SPBYU SD,32.0264,-102.1763333,31.99812481,-102.1646047,32.01226241,-102.170469,LINE DRIVE P 4MS,LINE DRIVE N 2MS,510.4551909,1139.434685,824.9449381,1512.397821,687.4528831,45%
HIGH SKY N 42-43 2414H,SPBYU SD,32.04672,-101.9378,32.01949,-101.9313,32.033105,-101.93455,HIGH SKY I 42-43 2409H,JAVAID WEST A 40-45 2401H,1410.466959,2000,1705.23348,1747.996271,42.76279061,2%
PEARL JAM 9LS,SPBYL SH,31.99707263,-102.2666659,32.01457782,-102.2735189,32.00582523,-102.2700924,PEARL JAM 11LS,PEARL JAM 7LS,618.2875626,705.2772838,661.7824232,350.869195,310.9132282,89%
TEXAS TEN-MILES 37A 4H,SPBYL SH,31.90348457,-102.0204267,31.9323082,-102.0275502,31.91789639,-102.0239884,ARICK-HOOPER UNIT 105H,ARICK-HOOPER UNIT 103H,2000,2000,2000,2000,0,0%
TEXAS TEN-MILES 37A 1H,SPBYL SD,31.90344117,-102.0206137,31.931896,-102.0293195,31.91766859,-102.0249666,TEXAS TEN-MILES 37C 6H,TATOM `G` 1,858.3094523,2000,1429.154726,1239.576673,189.5780528,15%
GUNS UP O 32-29 4215H,WCMP A,31.89788,-101.92795,31.92681,-101.93605,31.912345,-101.932,PINTAIL WEST B 31-30 4202H,PINTAIL WEST D 31-30 4204H,1203.656521,1871.417435,1537.536978,1852.506814,314.9698363,17%
PRESTON E13C 106H,WCMP D,31.75911119,-101.8671951,31.73518286,-101.8557195,31.74714702,-101.8614573,PRESTON E13B 105H,PRESTON E13A 104H,825.4946289,1620.748134,1223.121381,626.4473459,596.6740351,95%
MIDKIFF 43-06 0655 0655CH,WCMP C,31.66806,-101.93114,31.64402,-101.92268,31.65604,-101.92691,MIDKIFF 43-06 0666 0656CH,MIDKIFF 43-06 0667 0657CH,682.6030326,1426.928737,1054.765885,1191.601339,136.8354544,11%
MIDKIFF 43-06 0667 0697BH,WCMP B,31.66909,-101.92617,31.64523,-101.91828,31.65716,-101.922225,MIDKIFF 43-06 0627 0607BH,MIDKIFF 43-06 0606 0606BH,373.7532802,395.3473915,384.5503359,443.1335873,58.58325135,13%
MIDKIFF 43-06 0627 0617AH,WCMP A,31.66946,-101.92455,31.64538,-101.91696,31.65742,-101.920755,MIDKIFF 43-06 0606 0616AH,LHS RANCH 801AH,801.8174963,944.6322768,873.2248866,1230.281225,357.0563384,29%
PARKS ROY 316LH,SPBYL SH,31.80959722,-102.1776944,31.83816667,-102.1875722,31.82388195,-102.1826333,PARKS ROY 306LH,PARKS ROY 307LH,227.7584298,446.4519792,337.1052045,863.9788489,526.8736444,61%
RIO WICHITA 15-10 F 261,WOLFCAMP SHALE,31.693115,-102.104249,31.720255,-102.111894,31.706685,-102.1080715,RIO WICHITA 15-10 G 271,WINDHAM 14E 19HM,814.4953765,2000,1407.247688,1209.945172,197.3025161,16%
GBG CERBERUS 34/39 B 0152LS,SPBYL SD,31.88316167,-102.1656114,31.8599425,-102.1599261,31.87155208,-102.1627688,GBG CERBERUS 34/39 UNIT 0154LS,RIO LLANO 11-10 G 174,871.0003017,2000,1435.500151,1230.220593,205.2795584,17%
GBG CERBERUS 34/39 UNIT 0161LS,SPBYL SH,31.88549528,-102.1603933,31.86091972,-102.1558422,31.8732075,-102.1581178,GBG CERBERUS 34/39 UNIT 0162LS,GBG CERBERUS 34/39 UNIT 0153LS,450.7816218,859.6901412,655.2358815,349.253673,305.9822085,88%
ARICK-HOOPER UNIT 106H,SPBYL SD,31.92789329,-102.0460292,31.90448982,-102.0356515,31.91619155,-102.0408404,ARICK-HOOPER UNIT 104H,ARICK-HOOPER UNIT 102H,774.1278774,1602.26574,1188.196809,623.9803197,564.2164893,90%
DIAMOND RIO 9-16-G 4313H,WCMP B,32.066465,-102.125165,32.029945,-102.113105,32.048205,-102.119135,DIAMOND RIO 9-16-D 4307H,MASK HZ UNIT 1008H,2000,2000,2000,2000,0,0%
WTH 21-16 A 212R,WCMP A,31.85953806,-101.8460881,31.88587333,-101.8527994,31.8727057,-101.8494438,FR CATALYST F 94 17HA,WTH 21-16 G1 272,2000,2000,2000,1465.661995,534.3380052,36%
RIO PECOS 27-18SL UNIT 2 272,WCMP A,31.795229,-102.06752,31.820119,-102.074951,31.807674,-102.0712355,RIO PECOS 27-18SL UNIT 2 282,RIO PECOS 27-18SL UNIT 2 252,697.291046,827.0561868,762.1736164,884.1212411,121.9476247,14%
RIO SAN MARCOS 36-45 UNIT 1A 135,SPBYL SD,31.789849,-102.00305,31.76279457,-101.9955758,31.77632179,-101.9993129,BRADFORD TRUST A UNIT 1 0344SH,HUTT DONALD L `C` 3671H,2000,2000,2000,2000,0,0%
TURNER W43 15H,WCMP A,31.905261,-101.905861,31.932571,-101.911282,31.918916,-101.9085715,TURNER W43 14H,TURNER EC43G 207H,767.2284566,1171.482794,969.3556252,595.8588931,373.4967321,63%
CMC BLUEBONNET 17/29 UNIT 0052WA,WOLFCAMP,31.740595,-101.9315272,31.70408876,-101.923167,31.72234188,-101.9273471,MARALO 41-32 ALLOCATION 3205 3205BH,MARALO 41-32 ALLOCATION 3215 3215AH,259.4099388,263.2319214,261.3209301,1608.506901,1347.185971,84%
TXL 11 UNIT 4 1418 1448SH,SPBYL SH,31.745771,-101.982874,31.72182713,-101.9765314,31.73379907,-101.9797027,TXL 11 UNIT 4 1427SH,TXL 11 UNIT 4 1426SH,795.83671,1651.336275,1223.586493,812.880269,410.706224,51%
PERSEPHONE 42/31 Z 0143LS,,31.88161583,-102.1015767,31.90219028,-102.1091864,31.89190306,-102.1053816,TXL 11 UNIT 4 1427SH,TXL 11 UNIT 4 1426SH,795.83671,1651.336275,1223.586493,812.880269,410.706224,51%
TURNER EC43G 207H,WCMP A,31.907514,-101.898831,31.933246,-101.907582,31.92038,-101.9032065,TURNER EC43H 208H,IBIS WEST G 17-32 4207H,760.3604857,1132.22116,946.2908229,609.0734384,337.2173845,55%
CHARLES MIDKIFF 38-47 4713 4703BH,WCMP B,31.70446,-101.8745,31.67974,-101.86602,31.6921,-101.87026,CHARLES MIDKIFF 38-47 4712 4702BH,MIDKIFF FRANK 35 ALLOCATION 3805 3805BH,665.0287612,2000,1332.514381,1181.403956,151.1104254,13%
CHARLES MIDKIFF 38-47 4713 4753CH,WCMP C,31.70448,-101.87441,31.67943,-101.86704,31.691955,-101.870725,CHARLES MIDKIFF 38-47 4714 4754CH,CHARLES MIDKIFF 38-47 4712 4752CH,627.8073101,2000,1313.903655,1267.543905,46.35975001,4%
CHARLES MIDKIFF 38-47 4713 4763DH,SPBYL SH,31.7048,-101.87303,31.67967,-101.86603,31.692235,-101.86953,CHARLES MIDKIFF 38-47 4712 4762DH,CHARLES MIDKIFF 38-47 4711 4761DH,632.5168502,2000,1316.258425,1436.467885,120.2094598,8%
JOHN BRAUN B UNIT 1 4141SH,SPBYL SH,31.72813,-102.06613,31.75223,-102.07456,31.74018,-102.070345,JOHN BRAUN B UNIT 1 4122SH,JOHN BRAUN B UNIT 1 4143SH,619.6758568,1306.243429,962.9596431,1358.683487,395.7238437,29%
CUMBERLAND WEST G 3401WB,WCMP B,31.99231111,-102.2020944,32.02827222,-102.2156806,32.01029167,-102.2088875,CUMBERLAND WEST B 3402WB,CUMBERLAND WEST C 3403WB,685.8085635,2000,1342.904282,1109.778014,233.1262676,21%
HOGAN 1-13-C 2605H,SPBYL SD,32.0534074,-102.0739536,32.0324882,-102.069763,32.0429478,-102.0718583,WAFFLE IRON H235SS,WAFFLE IRON H125SS,2000,2000,2000,2000,0,0%
JOHN BRAUN B UNIT 1 4103BH,WOLFCAMP,31.72913,-102.06369,31.75319999,-102.0704695,31.741165,-102.0670798,JOHN BRAUN B UNIT 1 4113AH,JOHN BRAUN B UNIT 1 4112AH,321.0724766,351.4129243,336.2427004,1215.311917,879.069217,72%
JOHN BRAUN B UNIT 2 4116AH,WCMP A,31.717712,-102.052562,31.7547,-102.063283,31.736206,-102.0579225,JOHN BRAUN B UNIT 2 4117AH,JOHN BRAUN B UNIT 1 4111AH,654.4299933,2000,1327.214997,1548.315411,221.1004142,14%
TXL 36 UNIT 3612AH,WCMP A,31.66990272,-101.9573984,31.69427369,-101.9647344,31.68208821,-101.9610664,TXL 36 UNIT 3613AH,TXL 36 UNIT 3611AH,644.9590849,669.8887397,657.4239123,625.8623772,31.56153507,5%
TXL 36 UNIT 3601BH,WCMP B,31.66989139,-101.9575586,31.69403531,-101.9657361,31.68196335,-101.9616473,TXL 36 UNIT 3604BH,COWDEN GUY UNIT 2 2505BH,1932.453326,2000,1966.226663,1135.311692,830.9149709,73%
JOHN BRAUN B UNIT 2 4117AH,WCMP A,31.718721,-102.04774,31.755277,-102.061285,31.736999,-102.0545125,JOHN BRAUN B UNIT 2 4116AH,JOHN BRAUN B UNIT 1 4111AH,654.4299933,2000,1327.214997,1548.315411,221.1004142,14%
CHARLES MIDKIFF 38-47 4711 4751CH,WCMP C,31.70092,-101.87562,31.67151,-101.8689,31.686215,-101.87226,MIDKIFF-HALFMANN 39-46 4600 4650R,CHARLES MIDKIFF 38-47 4712 4752CH,638.1487004,675.2425662,656.6956333,865.2592548,208.5636215,24%
CHARLES MIDKIFF 38-47 4711 4761DH,SPBYL SH,31.70132,-101.87393,31.67177,-101.86784,31.686545,-101.870885,CHARLES MIDKIFF 38-47 4712 4762DH,CHARLES MIDKIFF 38-47 4713 4763DH,2000,2000,2000,1677.498778,322.5012219,19%
RIO CONCHO 34-46 C 231,WCMP A,31.800281,-101.987441,31.773968,-101.979527,31.7871245,-101.983484,RIO CONCHO 34-46 B 221,RIO PEDERNALES 23-34 UNIT 2 281,784.0025898,2000,1392.001295,1371.876817,20.12447758,1%
RIO CONCHO 34-46 C 232,WCMP B,31.800262,-101.987518,31.773726,-101.98065,31.786994,-101.984084,MIDLAND AX FEE B 12HB,RIO CONCHO 34-46 B 222,673.6731631,753.0189039,713.3460335,934.6478006,221.3017671,24%
RIO CONCHO 34-46 D 141,SPBYL SH,31.800244,-101.987596,31.773664,-101.981022,31.786954,-101.984309,RIO CONCHO 34-46 B 123,RIO CONCHO 34-46 A 111,811.4679666,1658.074987,1234.771477,836.8117866,397.9596904,48%
WTH 22-15 A 212,WCMP A,31.86505889,-101.8286356,31.88957662,-101.8365455,31.87731776,-101.8325905,WTH 22-15 C 231,WTH 22-15 D 242,749.1307129,1450.304615,1099.717664,1358.545724,258.8280603,19%
WTH 22-15 B 221,WCMP B,31.86504222,-101.8287122,31.88935667,-101.8377367,31.87719945,-101.8332244,WTH 22-15 A 211,WTH 21-16 B 221,668.3145482,2000,1334.157274,1179.539124,154.6181496,13%
RIO WICHITA 15-10 G 271,WOLFCAMP SHALE,31.693096,-102.104327,31.719638,-102.114417,31.706367,-102.109372,RIO WICHITA 15-10 F 261,WINDHAM 14E 19HM,814.4953765,2000,1407.247688,1209.945172,197.3025161,16%
GAULT 5-44 UNIT 6LS 161,SPBYL SH,31.98468333,-102.0175439,32.00491639,-102.0248989,31.99479986,-102.0212214,GAULT 5-44 UNIT 7LS 172,GAULT 5-44 UNIT 8LS 181,764.5549669,1428.098144,1096.326555,1226.531964,130.2054087,11%
CARMANITA 30LS,SPBYL SH,31.66602719,-102.276184,31.6937035,-102.2834494,31.67986535,-102.2798167,CARMANITA 24LS,CARMANITA 34LS,864.6149429,892.1608001,878.3878715,875.5542129,2.833658605,0%
CARMANITA 34LS,SPBYL SH,31.66597605,-102.2764192,31.69317196,-102.2862554,31.67957401,-102.2813373,CARMANITA 30LS,TATIA 04LS,892.1608001,1012.39912,952.2799601,964.7706604,12.49070031,1%
JOHN BRAUN A UNIT 3 1343SH,SPBYL SD,31.72349,-102.07871,31.69995397,-102.0712449,31.71172199,-102.0749775,JOHN BRAUN A UNIT 3 1341SH,DAVIDSON UNIT 2 3673JH,1219.034289,2000,1609.517145,1586.857356,22.65978861,1%
RIO LLANO 11-10 D 141,SPBYL SH,31.796435,-102.099499,31.82764,-102.107787,31.8120375,-102.103643,RIO LLANO 11-10 E 152,RIO LLANO 11-10 C 131,883.2898836,955.6888971,919.4893904,968.1218943,48.63250389,5%
LYNCH-JUNE T 4837 A 1HM,WCMP B,31.72266667,-102.1871208,31.74507833,-102.1964233,31.7338725,-102.1917721,LYNCH A HZ 6HM,LYNCH A HZ 3HS,2000,2000,2000,2000,0,0%
RIO LLANO 11-10 E 151,SPBYU SD,31.796397,-102.099654,31.827112,-102.110524,31.8117545,-102.105089,RIO LLANO 11-10 G 171,RIO LLANO 11-10 C1 133,856.0817104,1557.189128,1206.635419,989.708581,216.926838,22%
LYNCH-JUNE T 4837 B 8HS,SPBYL SH,31.723615,-102.183335,31.74600194,-102.1929469,31.73480847,-102.1881409,LYNCH-JUNE T 4837 B 9HS,LYNCH-JUNE T 4837 A 7HS,558.8803838,559.1639278,559.0221558,465.4057163,93.61643949,20%
GBG DANGER ZONE 13/25 UNIT 0195WA,WCMP A,31.92951,-102.1441397,31.89743417,-102.1294292,31.91347209,-102.1367845,GBG DANGER ZONE 13/25 UNIT 0203WA,GBG DANGER ZONE 13/25 UNIT 0192WA,873.7240672,912.7238047,893.223936,802.7402517,90.48368433,11%
RIO LLANO 11-10 H 181,SPBYU SD,31.795462,-102.10367,31.825661,-102.115865,31.8105615,-102.1097675,BENGE MARION V ESTATE A13 2501MH,RIO LLANO 11-10 G 171,799.8184632,882.415022,841.1167426,1205.325535,364.2087928,30%
EPLEY LB 34-46 D 504LS,SPBYL SH,32.06502778,-101.9000083,32.02921667,-101.8886861,32.04712222,-101.8943472,EPLEY LB 34-46 C 503LS,EPLEY LB NS 39-46 05 505H,633.4315434,812.4107533,722.9211484,963.3041757,240.3830273,25%
TEXAS TEN-YATER 39C 103H,SPBYL SH,31.89506077,-102.0621634,31.91921632,-102.0676487,31.90713855,-102.0649061,SCHARBAUER C 0053LS,SCHARBAUER C 0052LS,2000,2000,2000,2000,0,0%
BRD ASTRODOME UNIT 0244WA,WCMP A,31.84448592,-101.9885936,31.86865333,-101.9925584,31.85656963,-101.990576,BRD ASTRODOME UNIT 0252WA,BRD ASTRODOME UNIT 0241WA,847.34968,858.8700849,853.1098824,829.5649196,23.54496285,3%
ST 4044MS,SPBYU SD,31.95750833,-102.2000917,31.98415556,-102.2101472,31.97083195,-102.2051195,ST 4043MS,ST 4045MS,696.7699887,865.8743989,781.3221938,525.2573725,256.0648213,49%
BRD ASTRODOME UNIT 0231LS,,31.84452919,-101.9921311,,,,,ST 4043MS,ST 4045MS,696.7699887,865.8743989,781.3221938,525.2573725,256.0648213,49%
BANKHEAD 4-33 UNIT 2A 261,WCMP A,31.96728944,-102.1034517,31.99259909,-102.1101748,31.97994427,-102.1068132,BANKHEAD 4-33 UNIT 2 252,BANKHEAD 4-33 UNIT 2A 272,706.2768822,871.4727496,788.8748159,986.7003093,197.8254934,20%
BRD ASTRODOME UNIT 0234LS,,31.84458169,-101.9918975,,,,,BANKHEAD 4-33 UNIT 2 252,BANKHEAD 4-33 UNIT 2A 272,706.2768822,871.4727496,788.8748159,986.7003093,197.8254934,20%
ABBIE LAINE 30XX 14HC,SPBYU SD,31.74968611,-102.1497444,31.72875556,-102.1413556,31.73922083,-102.14555,LYNCH A HZ 38HS,FRASER TXL A8 504MH,2000,2000,2000,2000,0,0%
ABBIE LAINE 30F 21HL,,31.74963056,-102.1499778,31.72800556,-102.1444306,31.73881806,-102.1472042,LYNCH A HZ 38HS,FRASER TXL A8 504MH,2000,2000,2000,2000,0,0%
GRIDIRON S017JM,SPBYL SD,31.972272,-102.155761,31.99883476,-102.1678464,31.98555338,-102.1618037,GRIDIRON N007MS,LINE DRIVE O 3JM,530.5710904,1290.343104,910.4570974,978.7081753,68.25107789,7%
ACTINIDE 2HA,WCMP A,31.88553972,-101.8518431,31.91410611,-101.8609767,31.89982292,-101.8564099,ACTINIDE E 6HA,WTH 10-3 H 282,641.7596233,800.2213516,720.9904874,762.4873374,41.49685004,5%
RIO GRANDE 25-20SL UNIT 1 133,SPBYL SH,31.806339,-102.030842,31.829287,-102.03358,31.817813,-102.032211,RIO GRANDE 25-20SL UNIT 1 143,RIO GRANDE 25-20SL UNIT 1 123,696.7763368,785.9111654,741.3437511,557.2318414,184.1119097,33%
ATKINS 47-02 UNIT 1 0211AH,WCMP A,31.665013,-101.97507,31.634292,-101.964293,31.6496525,-101.9696815,ATKINS 15-10A-H 4215H,ATKINS 47-02 UNIT 1 0212AH,708.01643,814.4047569,761.2105934,1393.226502,632.0159084,45%
BRAUN C W11 2106BH,WCMP B,31.785878,-102.119906,31.81467222,-102.1270528,31.80027511,-102.1234794,BRAUN C W6 2108BH,PARKS FIELD UNIT 2 2001BH,854.2718367,1692.873106,1273.572472,666.0032254,607.5692466,91%
ATKINS 47-02 UNIT 2 0276JH,SPBYL SD,31.667275,-101.962025,31.64749265,-101.9547151,31.65738383,-101.9583701,ATKINS 47-02 UNIT 2 0276JH,ATKINS 47-02 UNIT 2 0275JH,2000,2000,2000,1959.444384,40.55561588,2%
GERMANIA W41A 1H,WCMP B,32.07098394,-101.8330046,32.03807713,-101.8259349,32.05453054,-101.8294697,GERMANIA W41C 3H,GERMANIA W41E 5H,1048.356635,1859.321263,1453.838949,768.8756995,684.9632495,89%
GERMANIA W41D 4H,WCMP A,32.07105012,-101.8327252,32.03765798,-101.8214282,32.05435405,-101.8270767,GERMANIA W41B 2H,GERMANIA E41A 1H,823.627092,1449.762437,1136.694764,1220.785281,84.09051656,7%
GERMANIA W41E 5H,WCMP B,32.07107247,-101.8326318,32.06424876,-101.8281175,32.06766061,-101.8303747,FLETCHER 101,GREENE 2 202WB,2000,2000,2000,2000,0,0%
GERMANIA W41E 5H,WCMP B,32.07107247,-101.8326318,32.03816549,-101.8199223,32.05461898,-101.8262771,GERMANIA W41C 3H,GERMANIA E41B 2H,891.9472948,1413.794023,1152.870659,2000,847.129341,42%
GERMANIA E41B 2H,WCMP B,32.07308145,-101.8242084,32.04002294,-101.8159089,32.05655219,-101.8200587,GERMANIA E41B 2H,GERMANIA E41D 4H,761.4767776,895.7567284,828.616753,428.0194534,400.5972996,94%
MIDKIFF NES11R 119H,WCMP B,31.65637399,-101.8521914,31.68792434,-101.8614293,31.67214917,-101.8568103,MIDKIFF FRANK 35 ALLOCATION 3807 3807BH,MIDKIFF FRANK 35 ALLOCATION 3816 3816AH,337.9746327,512.4012178,425.1879253,1216.830548,791.6426228,65%
TEXAS TEN Y PU 3716H,SPBYL SH,31.90503914,-102.0182893,31.87944464,-102.0130659,31.89224189,-102.0156776,TEXAS TEN Y PU 3717H,TEXAS TEN Y PU 3712H,860.1238146,877.1236979,868.6237563,852.6793481,15.94440817,2%
COWDEN 32C 15HD,,31.67902778,-102.0241278,31.65190833,-102.0191389,31.66546805,-102.0216334,TEXAS TEN Y PU 3717H,TEXAS TEN Y PU 3712H,860.1238146,877.1236979,868.6237563,852.6793481,15.94440817,2%
HALOGEN G 103HD,WCMP D,31.851083,-101.811026,31.88513962,-101.8222445,31.86811131,-101.8166352,ALKALINE EARTH G 103HD,HALOGEN F 102HD,213.7514708,819.392786,516.5721284,807.8498111,291.2776827,36%
CMC TIGER UNIT 0262WA,WOLFCAMP,31.84286389,-102.0286419,31.87279417,-102.0403033,31.85782903,-102.0344726,TEXAS TEN Y PU 3809H,TEXAS TEN Y PU 3942H,450.4587843,539.264086,494.8614352,2000,1505.138565,75%
JAVAID EAST O 40-45 4315H,WCMP B,32.05341,-101.90439,32.02738,-101.89649,32.040395,-101.90044,LB EPLEY 34-46 C 202WB,EPLEY LB NS 39-46 05 205H,1688.624385,2000,1844.312192,2000,155.687808,8%
BRYANT-WHITEFIELD G 42-43 2807H,SPBYL SH,32.04713,-101.9486,32.01765,-101.93825,32.03239,-101.943425,BRYANT-WHITEFIELD E 42-43 2805H,HIGH SKY I 42-43 2809H,447.4029525,770.9006273,609.1517899,335.5856634,273.5661265,82%
SOA SCHARBAUER SW 0112JM,SPBYL SD,31.89464167,-102.1900933,31.92714722,-102.2054833,31.91089444,-102.1977883,SOA SCHARBAUER SOUTHEAST 0115JM,SOA SCHARBAUER SOUTHEAST 0117JM,1982.681023,2000,1991.340512,1241.156396,750.1841161,60%
MCCLINTIC-BRUNSON 31A 1H,WCMP A,31.96904958,-101.8106825,31.94269958,-101.8044877,31.95587458,-101.8075851,MCCLINTIC-BRUNSON 31C 3H,MCCLINTIC-BRUNSON 31E 5H,640.125207,1392.780265,1016.452736,508.9867516,507.4659844,100%
ALKALINE EARTH G 12HA,WCMP A,31.92008283,-101.8322947,31.88540625,-101.8224161,31.90274454,-101.8273554,ALKALINE EARTH G 9HA,HALOGEN F 8HA,472.4504207,516.0169082,494.2336644,529.5415794,35.30791497,7%
ST 4046MS,SPBYU SD,31.95251178,-102.2084498,31.98285177,-102.2154738,31.96768178,-102.2119618,ST 4045MS,ST 4044MS,849.332013,1715.162386,1282.247199,1219.706074,62.5411254,5%
CRAWFORD-BAUMANN 7S 119H,WCMP B,31.97427728,-102.0256047,31.95756387,-102.0233135,31.96592058,-102.0244591,CRAWFORD-BAUMANN 7S 119H,CRAWFORD-BAUMANN 7U 121H,1695.938815,1882.413936,1789.176376,899.0589471,890.1174289,99%
CRAWFORD-BAUMANN 7X 124H,WCMP A,31.97434936,-102.0254348,31.95445053,-102.0159362,31.96439995,-102.0206855,CRAWFORD-BAUMANN 7V 122H,CRAWFORD-BAUMANN 7T 120H,771.8175871,1587.420386,1179.618987,598.6269238,580.9920632,97%
ELKIN-CRAWFORD 34E 5H,WCMP A,31.90207944,-101.9756007,31.87595673,-101.9651023,31.88901809,-101.9703515,ELKIN-CRAWFORD 34C 3H,ELKIN-CRAWFORD 34A 1H,932.4690391,1706.287447,1319.378243,704.1836509,615.1945921,87%
JUDKINS-BETH 38C 3H,WOLFCAMP,31.82372148,-101.8000722,31.85111281,-101.8054821,31.83741715,-101.8027772,SHACKELFORD 3426H,SHACKELFORD E39F 106H,2000,2000,2000,2000,0,0%
PINTAIL N 31-30 4314H,WCMP B,31.90427,-101.9108,31.93073,-101.92031,31.9175,-101.915555,PINTAIL I 31-30 4309H,TURNER W43 12H,1575.765916,2000,1787.882958,1923.649702,135.7667436,7%
DAVIDSON 26A 1HJ,WCMP A,31.671425,-102.0811444,31.62955,-102.0694333,31.6504875,-102.0752888,DAVIDSON A 38B 4HK,DAVIDSON A 38C 8HK,1924.314243,2000,1962.157122,1824.477989,137.6791332,8%
DAVIDSON 26B 3HJ,WOLFCAMP,31.67146389,-102.0809917,31.65372778,-102.0750861,31.66259583,-102.0780389,DAVIDSON 37 (ALLOCATION) 18H,DAVIDSON 37 (ALLOCATION) 11HR,2000,2000,2000,2000,0,0%
DAVIDSON 26C 4HL,WCMP B,31.6715007,-102.0808361,31.6539123,-102.0743169,31.6627065,-102.0775765,DAVIDSON 26D 6HL,DAVIDSON 26BB 2HL,556.6956401,585.8066085,571.2511243,316.9815498,254.2695745,80%
STILT WEST D 18-20 2804H,SPBYL SH,31.95172,-101.95629,31.92454,-101.94745,31.93813,-101.95187,STILT WEST C 18-20 2803H,STILT WEST A 18-20 2801H,447.0040789,855.9173088,651.4606938,577.8636555,73.59703827,13%
JOHN BRAUN C UNIT 2 0807BH,WCMP B,31.70592389,-102.0284501,31.73797461,-102.0375552,31.72194925,-102.0330027,JOHN BRAUN C UNIT 2 0806BH,JOHN BRAUN C UNIT 2 0805BH,884.9662847,1765.51281,1325.239547,1125.460747,199.7788003,18%
JOHN BRAUN C UNIT 2 0846SH,SPBYL SD,31.70588272,-102.0286568,31.73752811,-102.0395229,31.72170542,-102.0340898,JOHN BRAUN C UNIT 2 0848SH,JOHN BRAUN C UNIT 2 0845SH,1078.607092,1102.868462,1090.737777,1137.128439,46.39066204,4%
GAULT 5-44 UNIT 7UW 271R,WCMP B,31.98380111,-102.0215597,32.004445,-102.0267992,31.99412306,-102.0241794,GAULT 5-44 UNIT 3UW 231,CRAWFORD TANK FARM NE7R 118H,2000,2000,2000,1897.915316,102.0846843,5%
HIGH SKY O 42-43 4215H,WCMP A,32.04637,-101.93956,32.01961,-101.92988,32.03299,-101.93472,HIGH SKY M 42-43 4213H,HIGH SKY J 42-43 4210H,800.5378997,1646.788695,1223.663297,868.6489633,355.0143337,41%
HIGH SKY I 42-43 4309H,WCMP B,32.04562,-101.94259,32.01816,-101.93585,32.03189,-101.93922,HIGH SKY K 42-43 4311H,BRYANT-WHITEFIELD D 42-43 4304H,852.1295374,1747.002933,1299.566235,1417.634687,118.0684523,8%
RIO LAVACA 17-48 UNIT 2 172,SPBYL SH,31.80121761,-102.0891517,31.82994595,-102.098139,31.81558178,-102.0936454,TEXAS TEN `AA` 617H,RIO LAVACA 17-48 UNIT 2 161,877.7449616,922.8399155,900.2924386,956.6483132,56.35587464,6%
WILLIS-BERMAN NE33A 1H,SPBYL SD,31.90729444,-101.9529306,31.87996193,-101.9455049,31.89362819,-101.9492178,WILLIS-BERMAN NE33F 6H,WILLIS-BERMAN NE33JJ 110H,800.5422233,1707.338892,1253.940558,1006.664111,247.2764472,25%
WILLIS-BERMAN NE33A 3H,SPBYL SH,31.90733611,-101.9527444,31.88022245,-101.9443404,31.89377928,-101.9485424,WILLIS-BERMAN NE33JJ 108H,WILLIS-BERMAN NE33JJ 112H,847.0644332,1703.423008,1275.243721,1297.874762,22.63104082,2%
WILLIS-BERMAN NE33F 6H,SPBYL SD,31.9074,-101.9524639,31.88053889,-101.9430111,31.89396945,-101.9477375,WILLIS-BERMAN NE33A 1H,WILLIS-BERMAN NE33JJ 110H,800.5422233,906.7969188,853.669571,775.673079,77.99649195,10%
WILLIS-BERMAN NE33F 5H,WCMP A,31.90737778,-101.9525583,31.88056944,-101.9428556,31.89397361,-101.947707,WILLIS-BERMAN NE33A 2H,WILLIS-BERMAN NE33JJ 109H,820.7577599,880.2021213,850.4799406,764.369442,86.11049857,11%
PRESTON S31M 113H,WCMP A,31.711255,-101.83477,31.68120319,-101.8272971,31.6962291,-101.8310336,PRESTON S31O 115H,PRESTON S31Q 117H,797.1857715,1561.520766,1179.353269,634.6044101,544.7488589,86%
RIO LLANO 11-10 C 232,WCMP B,31.79790381,-102.0935053,31.82826426,-102.1052771,31.81308404,-102.0993912,RIO LLANO 11-10 A 212,RIO LAVACA 17-48 UNIT 2 281,1081.352575,1998.809858,1540.081217,1204.633103,335.4481136,28%
WILLIS-BERMAN NE33JJ 112H,SPBYL SH,31.90648853,-101.9482874,31.88145954,-101.939037,31.89397404,-101.9436622,WILLIS-BERMAN NE33JJ 108H,WILLIS-BERMAN NE33A 3H,856.3650215,1703.423008,1279.894015,972.4943659,307.3996491,32%
FAYTH 38G 11HM,WCMP B,31.73335556,-102.1266889,31.75996944,-102.1351806,31.7466625,-102.1309348,FRASER TXL A4 503BH,WINDHAM 33F 6HM,2000,2000,2000,2000,0,0%
JOHN BRAUN C UNIT 1 0821SH,SPBYL SH,31.704864,-102.041884,31.73493707,-102.0506803,31.71990054,-102.0462822,JOHN BRAUN C UNIT 1 0822SH,JOHN BRAUN C UNIT 1 0823SH,1088.341306,1928.877268,1508.609287,1525.690279,17.08099209,1%
COSPER 37-48 WSL 261,WCMP B,32.06656989,-101.8660104,32.03685922,-101.8560879,32.05171456,-101.8610492,COSPER 37-48 WSL 281,OLDHAM-GRAHAM 35F 6H,1557.401579,2000,1778.70079,1577.684928,201.0158616,13%
THE BAR E 30-19 2805H,SPBYL SH,32.08366,-101.85311,32.1114,-101.86156,32.09753,-101.857335,THE BAR D 30-19 2804H,THE BAR G 30-19 2807H,474.7238532,495.4065876,485.0652204,245.2715363,239.7936841,98%
PINTAIL I 31-30 6209H,WCMP D,31.9027,-101.91754,31.92954,-101.92548,31.91612,-101.92151,PINTAIL WEST E 31-30 6205H,PINTAIL O 31-30 6215H,1320.563579,1950.135402,1635.349491,1584.902665,50.44682571,3%
PINTAIL WEST B 31-30 4302H,WCMP B,31.90199,-101.92238,31.9278,-101.93288,31.914895,-101.92763,PINTAIL WEST D 31-30 4304H,GUNS UP N 32-29 4314H,810.3169526,1365.430512,1087.873732,1231.785787,143.9120546,12%
PINTAIL WEST D 31-30 4304H,WCMP B,31.90187,-101.92077,31.92837,-101.93035,31.91512,-101.92556,PINTAIL WEST B 31-30 4302H,PINTAIL I 31-30 4309H,810.3169526,1649.205029,1229.760991,999.8737081,229.8872829,23%
PARKS 1200 UNIT 2 1228SH,WCMP B,31.83401,-102.212514,31.805053,-102.200469,31.8195315,-102.2064915,PARKS 1200 UNIT 2 1206BR,PARKS-COYOTE 1506 A 1HM,1298.342858,2000,1649.171429,1473.190301,175.9811284,12%
DAVIDSON 23E 1HF,SPBYL SH,31.699026,-102.085211,31.66166396,-102.0706691,31.68034498,-102.0779401,DAVIDSON 23F 5HE,DAVIDSON 23G 11HF,637.2294864,1296.702836,966.9661614,1274.614197,307.6480352,24%
PEGGY 9 301,WCMP B,31.89334061,-101.8824403,31.86590555,-101.8750848,31.87962308,-101.8787626,PEGGY 10 302,PEGGY 101WB,924.1008977,2000,1462.050449,1243.475127,218.5753216,18%
WTH 24-13 A 212,WCMP A,31.868507,-101.793693,31.89724095,-101.8029722,31.88287398,-101.7983326,WTH 24-13 G 271,WTH 24-13 H 282,2000,2000,2000,2000,0,0%
UNIVERSITY 212,WCMP C,31.2377516,-101.6649942,31.23602944,-101.6619791,31.23689052,-101.6634867,UNIVERSITY 2536 8HM,UNIVERSITY 2536 8HM,2000,2000,2000,2000,0,0%
SPRABERRY DRIVER UNIT 894,SPBYL SD,31.6506833,-101.7687164,31.64755195,-101.7657363,31.64911763,-101.7672264,SPRABERRY DRIVER UNIT 894,NORTH PEMBROOK UNIT 1203,408.8349684,2000,1204.417484,1102.208363,102.2091214,9%
UNIVERSITY 9 2804H,WCMP B,31.2369694,-101.6096139,31.25872264,-101.6096475,31.24784602,-101.6096307,UNIVERSITY 09 902H,UNIVERSITY 09 913H,295.6627159,804.7304811,550.1965985,1197.763378,647.5667791,54%
UNIVERSITY `10-14` 5H,WCMP B,31.28036076,-101.5478988,31.25988664,-101.549092,31.2701237,-101.5484954,UNIVERSITY 10 2601HB,UNIVERSITY 10-13 5H,609.1909767,1064.944254,837.0676153,1111.26884,274.2012247,25%
UNIVERSITY `43-25` 1H,,31.0814166,-101.2995556,,,,,UNIVERSITY 10 2601HB,UNIVERSITY 10-13 5H,609.1909767,1064.944254,837.0676153,1111.26884,274.2012247,25%
SUGG B131 1H,WCMP A,31.56596944,-101.3642972,31.57737719,-101.364144,31.57167331,-101.3642206,HOLT C 132-130 (ALLOCATION-D) 4NM,SUGG -A- 142OH,2000,2000,2000,815.2721052,1184.727895,145%
UNIVERSITY 9 2703H,,31.2371025,-101.6259322,,,,,HOLT C 132-130 (ALLOCATION-D) 4NM,SUGG -A- 142OH,2000,2000,2000,815.2721052,1184.727895,145%
CHICO COMPANY 1H,,31.14011111,-101.4586361,,,,,HOLT C 132-130 (ALLOCATION-D) 4NM,SUGG -A- 142OH,2000,2000,2000,815.2721052,1184.727895,145%
UNIVERSITY 12 1802H,WCMP A,31.09407219,-101.5599907,31.07375041,-101.5602231,31.0839113,-101.5601069,UNIVKEISHA 7133SH,UNIVERSITY MAROON 7121H,2000,2000,2000,2000,0,0%
UNIVERSITY 9 `A` 1101H,WCMP B,31.2820918,-101.6361324,31.25935327,-101.6362762,31.27072253,-101.6362043,UNIVERSITY 09 10-15 ALLOCATION 03 03HK,UNIVERSITY 09 10-15 ALLOCATION 12 12HA,740.7587568,1418.514581,1079.636669,1821.748602,742.1119332,41%
UNIVERSITY 9 2808H,WCMP A,31.23698056,-101.6110222,31.25873733,-101.6109354,31.24785894,-101.6109788,UNIVERSITY 09 921H,UNIVERSITY 9 2809H,652.2133274,996.0894246,824.151376,1195.827222,371.6758464,31%
UNIVERSITY 12 1716H,,31.0894973,-101.5379198,,,,,UNIVERSITY 09 921H,UNIVERSITY 9 2809H,652.2133274,996.0894246,824.151376,1195.827222,371.6758464,31%
UNIVERSITY BL 7201H,WOLFCAMP SHALE,31.08045,-101.6356389,31.06451011,-101.6354944,31.07248006,-101.6355667,UNIVERSITY BL 7192H,UNIVERSITY BL 7192H,1372.482106,1420.575276,1396.528691,1340.63873,55.88996079,4%
SUGG -A- 1431HU,WCMP A,31.5867333,-101.3797834,31.60722022,-101.3795505,31.59697676,-101.379667,SUGG-A- 1435NU,MCMASTER JL 155-156 (ALLOCATION-G) 7SU,1211.940395,2000,1605.970197,1794.105779,188.1355815,10%
SUGG -D- 1061HU,WCMP A,31.53370167,-101.3386197,31.55551294,-101.3383166,31.54460731,-101.3384682,SUGG -D- 1067NU,HOLT E 130-132 (ALLOCATION-H) 8SU,2000,2000,2000,2000,0,0%
UNIVERSITY 9-31 3H,WCMP B,31.230779,-101.583553,31.20780859,-101.5838356,31.2192938,-101.5836943,UNIVERSITY 9 2922WB,UNIVERSITY 10 2507HA,2000,2000,2000,2000,0,0%
UNIVERSITY 09 902H,WCMP B,31.287655,-101.608488,31.259183,-101.608867,31.273419,-101.6086775,UNIVERSITY 9 2804H,UNIVERSITY 9 2805H,295.6627159,823.3691497,559.5159328,1092.831502,533.3155693,49%
SRH UNIT 1 5H,WCMP A,31.45556944,-101.3501944,31.4426894,-101.3500023,31.44912942,-101.3500984,SRH E 7-8 (PSA-E) S051UB,SRH E 7-8 (PSA-D) S041UB,2000,2000,2000,2000,0,0%
UNIVERSITY 49 0904H,,31.10815278,-101.4370444,,,,,SRH E 7-8 (PSA-E) S051UB,SRH E 7-8 (PSA-D) S041UB,2000,2000,2000,2000,0,0%
UNIVERSITY 9 2810H,WOLFCAMP SHALE,31.2369197,-101.6037012,31.25881568,-101.6030615,31.24786769,-101.6033814,UNIVERSITY 2505 2HU,UNIVERSITY 2505 HZ UNIT 4HU,2000,2000,2000,2000,0,0%
UNIVERSITY 9 2809H,WCMP A,31.2369554,-101.6080219,31.25873665,-101.6077407,31.24784603,-101.6078813,UNIVERSITY 09 912H,UNIVERSITY 09 921H,314.0367498,398.6970949,356.3669223,1047.350085,690.983163,66%
UNIVERSITY `1-21` 3H,WCMP A,31.15872631,-101.7352087,31.18634545,-101.7337876,31.17253588,-101.7344982,UNIVERSITY ORANGE 1041A,UNIVERSITY ORANGE 1042A,2000,2000,2000,2000,0,0%
UNIVERSITY 9-31 8H,WCMP B,31.2278183,-101.5716259,31.2507617,-101.5728307,31.23929,-101.5722283,UNIVERSITY 09 1811H,UNIVERSITY 09 1813H,423.1274929,501.0081893,462.0678411,1996.266565,1534.198724,77%
UNIVERSITY `10-14` 7H,WCMP B,31.27911375,-101.5451673,31.2587014,-101.5458921,31.26890758,-101.5455297,UNIVERSITY `10-14` 5H,UNIVERSITY 10 3512HA,1087.338604,1089.907372,1088.622988,1512.740353,424.1173651,28%
UNIVERSITY 09 913H,WCMP B,31.28761909,-101.6120803,31.25908767,-101.6121929,31.27335338,-101.6121366,UNIVERSITY 09 918H,UNIVERSITY 9 2804H,296.022054,804.7304811,550.3762676,1176.444357,626.0680893,53%
WEATHERBY 3H,WCMP B,31.2321294,-101.4462628,31.2483932,-101.4428552,31.2402613,-101.444559,WEATHERBY 2H,WEATHERBY 5LH,711.2316124,1277.026564,994.1290881,596.4713768,397.6577113,67%
UNIVERSITY 10-13 8H,WCMP B,31.28196361,-101.5638577,31.2588471,-101.564859,31.27040536,-101.5643583,UNIVERSITY 10-13 9H,UNIVERSITY 10 3602H,736.5925405,2000,1368.29627,1410.460058,42.16378794,3%
SUGG -A- 1702HM,WCMP B,31.5805,-101.4242639,31.55907077,-101.4242627,31.56978539,-101.4242633,SUGG -A- 1714SM,SUGG -A- 1715SM,1145.946324,1802.253966,1474.100145,1883.582003,409.4818584,22%
UNIVERSITY `10-19` 7H,WCMP B,31.26490356,-101.4768476,31.24347924,-101.4770866,31.2541914,-101.4769671,UNIVERSITY `10-19` 4H,COATES 738 302H,749.2845001,2000,1374.64225,1327.783852,46.85839838,4%
UNIVERSITY 43-15 5H,WCMP B,31.1037616,-101.2924101,31.13172558,-101.29149,31.11774359,-101.2919501,UNIVERSITY 43-15 11H,BOOTHE 236-6 ALLOCATION 06 15HC,533.8118669,898.5946314,716.2032491,1091.056001,374.8527517,34%
UNIVERSITY `2-32` 14H,WCMP A,31.2917416,-101.7537249,31.31080148,-101.7524789,31.30127154,-101.7531019,UNIVERSITY `2-20` 46H,UNIVERSITY `2-20` 49H,848.4514573,1814.100823,1331.27614,1584.92426,253.6481204,16%
SRH NORTH 1626HU,WOLFCAMP SHALE,31.45954528,-101.4646517,31.4808029,-101.4648548,31.47017409,-101.4647533,SRH NORTH 1627HU,SRH NORTH 1335HU,1082.704774,2000,1541.352387,1152.922211,388.4301755,34%
SUGG B131-HOLT E (ALLOCATION) SL 2HM,WCMP B,31.5715139,-101.3727556,31.59354398,-101.3725057,31.58252894,-101.3726307,SUGG -A- 1423HM,SUGG B113-114 (ALLOCATION-D) 4NM,2000,2000,2000,2000,0,0%
WEATHERBY 6LH,WCMP B,31.23200556,-101.4389417,31.24832684,-101.4364795,31.2401662,-101.4377106,WEATHERBY 5LH,WEATHERBY 3H,713.7071097,1988.273053,1350.990082,1178.179284,172.8107984,15%
SUGG E 208-207 (ALLOCATION-F) 6NM,WCMP B,31.58833528,-101.4670739,31.60917788,-101.4664122,31.59875658,-101.466743,SUGG E 208-207 (ALLOCATION-E) 5NM,SUGG E 208-207 (ALLOCATION-D) 4NM,588.2360712,1197.491705,892.8638883,842.0439936,50.81989473,6%
UNIVERSITY 26-35 1LH,WCMP B,31.27306306,-101.6944914,31.28821104,-101.693612,31.28063705,-101.6940517,UNIVERSITY 2 2302LH,UNIVERSITY 2A 2303WB,591.5413849,1702.609997,1147.075691,1778.374542,631.2988514,35%
UNIVERSITY 10 3606HR,WCMP B,31.22752507,-101.5538119,31.25084812,-101.5523219,31.2391866,-101.5530669,UNIVERSITY 10 3605H,UNIVERSITY 10 3603H,880.4118949,2000,1440.205947,1240.120561,200.0853857,16%
UNIVERSITY CENTRAL 1115CH,WCMP B,31.184228,-101.522979,31.16272,-101.521985,31.173474,-101.522482,UNIVERSITY CENTRAL 1115AH,UNIVERSITY CENTRAL 1115EH,755.2324403,778.6057571,766.9190987,464.7661735,302.1529252,65%
WEATHERBY 1232 9HM,WCMP B,31.33128056,-101.6209306,31.31757778,-101.6210861,31.32442917,-101.6210084,WEATHERBY 1232 11HM,WEATHERBY 1232 9HM,817.3035503,1243.962042,1030.632796,731.3391301,299.2936659,41%
WEATHERBY 1232 12HU,WOLFCAMP SHALE,31.33094167,-101.6181611,31.31769302,-101.6183255,31.32431735,-101.6182433,WEATHERBY 1232 10HU,WEATHERBY 1232 6HU,882.4609778,2000,1441.230489,1439.903699,1.326789804,0%
UNIVERSITY 09 1805H,WCMP A,31.2681067,-101.5729645,31.28762259,-101.5726365,31.27786465,-101.5728005,UNIVERSITY 09 1801H,UNIVERSITY 09 1828H,520.3099368,715.6640396,617.9869882,578.8257047,39.16128346,7%
UNIVERSITY 09 1812H,WCMP A,31.26879356,-101.5729734,31.2515809,-101.5732231,31.26018723,-101.5730983,UNIVERSITY 09 1803H,UNIVERSITY 9-31 10H,602.7673745,643.76382,623.2655973,599.9805589,23.28503843,4%
WEATHERBY 1232 6HU,WOLFCAMP SHALE,31.33139722,-101.6260639,31.31773611,-101.6262222,31.32456667,-101.6261431,WEATHERBY 1232 10HU,WEATHERBY 1232 12HU,1581.240787,2000,1790.620394,1795.337098,4.716704142,0%
UNIVERSITY 09 1810H,WCMP A,31.26878366,-101.569182,31.25157168,-101.5688382,31.26017767,-101.5690101,UNIVERSITY 09 1807H,UNIVERSITY 9-31 9H,649.2887578,678.9674877,664.1281228,1005.006174,340.8780515,34%
UNIVERSITY 09 1818H,WCMP B,31.26878456,-101.5690704,31.25157167,-101.5687702,31.26017812,-101.5689203,UNIVERSITY 09 1808H,UNIVERSITY 09SL 1819H,329.3563866,682.6201873,505.9882869,836.8873744,330.8990875,40%
UNIVERSITY 09 1823H,WCMP B,31.26810761,-101.5728526,31.28762715,-101.5727893,31.27786738,-101.572821,UNIVERSITY 09 1815H,UNIVERSITY 09 1827H,297.9235152,623.4072467,460.6653809,626.6382493,165.9728684,26%
UNIVERSITY 26-35 2LH,WCMP B,31.27302944,-101.6875267,31.29575778,-101.6899006,31.28439361,-101.6887137,UNIVERSITY 26-35 8H,UNIVERSITY 26-35 3LH,567.5482542,831.8032651,699.6757597,846.2867012,146.6109415,17%
UNIVERSITY 26-35 3LH,WCMP B,31.27294694,-101.6875256,31.29550814,-101.6872478,31.28422754,-101.6873867,UNIVERSITY 26-35 2LH,UNIVERSITY 26-35 8H,831.8032651,1398.473036,1115.13815,1055.183943,59.95420707,6%
SRH NORTH 1334HM,WCMP B,31.46367194,-101.4468592,31.48089833,-101.4463325,31.47228514,-101.4465959,SRH NORTH 1336HM,SUGG-C- 1915SM,1296.70881,1862.795148,1579.751979,1656.004989,76.25301035,5%
COPE 107 1H,WCMP A,31.51052447,-101.3407585,31.48227887,-101.3424443,31.49640167,-101.3416014,COPE 107-108 07HA,COPE 107 03H,622.9914279,641.8836211,632.4375245,342.9213921,289.5161324,84%
COPE 107 03H,WCMP A,31.51052411,-101.3406464,31.48231681,-101.3403812,31.49642046,-101.3405138,COPE 107 1H,COPE 107 16HS,641.8836211,1327.327944,984.6057826,921.8903769,62.71540574,7%
HAM 1811H,WCMP B,31.38376391,-101.6317452,31.3600763,-101.6221056,31.37192011,-101.6269254,HAM 1825H,WATKINS 1229 12H,2000,2000,2000,2000,0,0%
UNIVERSITY `58-32` 8H,WOLFCAMP SHALE,31.28560111,-101.4759464,31.31615263,-101.4775955,31.30087687,-101.476771,UNIVERSITY 10 RE 0612HA,UNIVERSITY UNIT 1 RE 10 4 32HA,2000,2000,2000,2000,0,0%
SUGG -A- 1581SU,WCMP A,31.58757778,-101.4081417,31.56576106,-101.4093343,31.57666942,-101.408738,SUGG-A- 1573SU,SUGG-A- 1584SU,1512.201862,2000,1756.100931,1995.76473,239.663799,12%
COATES B - COATES A UNIT 3 1HM,WCMP B,31.31715231,-101.4400804,31.34117947,-101.4427148,31.32916589,-101.4413976,COATES B - COATES A UNIT 2 1HM,HUGHES CHAR 2H,1279.549605,1802.558493,1541.054049,906.857649,634.1964,70%
COATES 738 302H,WCMP B,31.2794308,-101.4647434,31.2489686,-101.4653464,31.2641997,-101.4650449,COATES 738 305H,PEMBROOK 10111 POOLED UNIT 1H,513.6101466,721.7533888,617.6817677,714.2226451,96.54087738,14%
HALFMANN 1214 2H,WCMP B,31.31757202,-101.5297865,31.343299,-101.530486,31.33043551,-101.5301363,HALFMANN 1214 3H,HALFMANN 1214 5H,332.3893617,643.9380497,488.1637057,755.3641214,267.2004157,35%
RINGO 14 5H,WCMP A,31.41428611,-101.7422333,31.4263172,-101.7458951,31.42030166,-101.7440642,RINGO 14 4H,RINGO 8-9-A 4102H,841.1842305,2000,1420.592115,1402.572684,18.01943112,1%
SRH NORTH 1348HM,WCMP B,31.48053377,-101.468435,31.45876808,-101.4684691,31.46965093,-101.4684521,SRH NORTH 1442HM,SRH NORTH 1437HU,1921.187278,2000,1960.593639,1372.527968,588.065671,43%
HOLLEY 1208 HZ UNIT 2HM,WCMP B,31.32958472,-101.640545,31.3182243,-101.6408314,31.32390451,-101.6406882,TURNER 1208 4H,HOLLEY 1208 HZ UNIT 2HM,941.324285,2000,1470.662143,1084.581331,386.0808123,36%
UNIVERSITY `2-20` 46H,WCMP A,31.28842593,-101.7500404,31.31077386,-101.7497564,31.2995999,-101.7498984,UNIVERSITY `2-32` 14H,UNIVERSITY `2-20` 49H,848.4514573,965.8788107,907.165134,1408.594274,501.4291396,36%
BOLD TSRH UNIT 28N 1HM,WOLFCAMP SHALE,31.39772222,-101.4281111,31.42095856,-101.4278646,31.40934039,-101.4279879,BOLD TSRH UNIT 28N 3HM,SRH-A- 1110SU,668.035795,2000,1334.017898,1187.945589,146.072309,12%
BOLD TSRH UNIT 28N 2HU,WCMP B,31.39772222,-101.4279722,31.412349,-101.4269501,31.40503561,-101.4274612,NORTH CREEK B 431CN,NORTH CREEK B 431NH,2000,2000,2000,2000,0,0%
UNIVERSITY 48-11 4H,WCMP B,31.10327778,-101.3101111,31.11711824,-101.3085722,31.11019801,-101.3093417,UNIVERSITY 48-11 3H,UNIVERSITY 48-11 2H,1003.594134,1935.46312,1469.528627,1211.9322,257.5964275,21%
UNIVERSITY CENTRAL 1126EH,,31.142039,-101.542313,,,,,UNIVERSITY 48-11 3H,UNIVERSITY 48-11 2H,1003.594134,1935.46312,1469.528627,1211.9322,257.5964275,21%
UNIVERSITY CENTRAL 1126AH,,31.142091,-101.548498,,,,,UNIVERSITY 48-11 3H,UNIVERSITY 48-11 2H,1003.594134,1935.46312,1469.528627,1211.9322,257.5964275,21%
UNIVERSITY 2303W HZ UNIT 2HU,WCMP B,31.31681389,-101.6322306,31.29621389,-101.6316194,31.30651389,-101.631925,UNIVERSITY 09A 1005H,UNIVERSITY 2303 W HORIZONTAL UNIT 1HM,302.6534312,502.8715008,402.762466,772.5490418,369.7865758,48%
UNIVERSITY 2303 EAST HORIZONTAL UNIT 5HM,WCMP B,31.31676111,-101.6247917,31.295825,-101.6250056,31.30629306,-101.6248987,UNIVERSITY 2303 WEST HORIZONTAL UNIT 4HU,UNIVERSITY 2303 EAST HORIZONTAL UNIT 7HM,925.0652195,1200.238919,1062.652069,1047.160597,15.49147244,1%
UNIVERSITY 2303 WEST HORIZONTAL UNIT 4HU,WCMP B,31.31678333,-101.627775,31.29596111,-101.6279694,31.30637222,-101.6278722,UNIVERSITY 2303 EAST HORIZONTAL UNIT 5HM,UNIVERSITY 2303W HZ UNIT 2HU,925.0652195,1141.328951,1033.197085,1095.58781,62.39072477,6%
ROCKER B -N- 90H,WCMP B,31.32168687,-101.3548116,31.34304912,-101.3544416,31.332368,-101.3546266,ROCKER B -N- 76H,ROCKER B -N- 75H,519.051666,977.4884516,748.2700588,850.4826303,102.2125715,12%
HARTGROVE UNIT 22 1HM,WCMP B,31.39797222,-101.6490833,31.37611111,-101.6425278,31.38704166,-101.6458056,HARTGROVE UNIT 22 4HL,BOLD HARTGROVE UNIT 22 2HM,572.7744059,988.0588349,780.4166204,546.8420903,233.5745301,43%
UNIVERSITY 2536 8HM,WCMP C,31.18679722,-101.6714722,31.20784979,-101.6712264,31.19732351,-101.6713493,UNIVERSITY 2536 8HM,UNIVERSITY 212,697.5439365,2000,1348.771968,1174.385987,174.3859813,15%
UNIVERSITY 22-19 6H,,31.08038611,-101.3275333,,,,,UNIVERSITY 2536 8HM,UNIVERSITY 212,697.5439365,2000,1348.771968,1174.385987,174.3859813,15%
HUGHES CHAR 2H,WCMP B,31.35961417,-101.4483394,31.34167885,-101.4484715,31.35064651,-101.4484055,TEXACO-COATES `A` UNIT 1 1HM,COATES B - COATES A UNIT 3 1HM,272.6662296,1802.558493,1037.612361,2000,962.387639,48%
UNIVERSITY 49 913H,,31.10823611,-101.4234833,,,,,TEXACO-COATES `A` UNIT 1 1HM,COATES B - COATES A UNIT 3 1HM,272.6662296,1802.558493,1037.612361,2000,962.387639,48%
UNIVERSITY 09 918H,WCMP B,31.287592,-101.612082,31.259207,-101.613132,31.2733995,-101.612607,UNIVERSITY 09 913H,UNIVERSITY 09 913H,239.6910565,296.022054,267.8565552,1177.159959,909.303404,77%
WATKINS 1229 6H,,31.36366389,-101.6121806,,,,,UNIVERSITY 09 913H,UNIVERSITY 09 913H,239.6910565,296.022054,267.8565552,1177.159959,909.303404,77%
UNIVERSITY 09 908H,,31.28757222,-101.609875,,,,,UNIVERSITY 09 913H,UNIVERSITY 09 913H,239.6910565,296.022054,267.8565552,1177.159959,909.303404,77%
UNIVERSITY 09 911H,,31.28756944,-101.6097639,,,,,UNIVERSITY 09 913H,UNIVERSITY 09 913H,239.6910565,296.022054,267.8565552,1177.159959,909.303404,77%
UNIVERSITY 47-48 1806H,,31.09224167,-101.3416778,,,,,UNIVERSITY 09 913H,UNIVERSITY 09 913H,239.6910565,296.022054,267.8565552,1177.159959,909.303404,77%
UNIVERSITY 09 921H,WCMP A,31.287576,-101.608486,31.259181,-101.608909,31.2733785,-101.6086975,UNIVERSITY 9 2809H,UNIVERSITY 09 912H,398.6970949,637.3423855,518.0197402,854.9259034,336.9061632,39%
HUGHES CHAR 4H,WCMP D,31.36005444,-101.4546822,31.34165218,-101.4547322,31.35085331,-101.4547072,SRH-B- 81H,SRH NORTH 1630HC,2000,2000,2000,2000,0,0%
MERCHANT EAST 1361HC,WCMP C,31.62658889,-101.5305278,31.61361301,-101.526759,31.62010095,-101.5286434,LANE TR C 42-43 (ALLOCATION-B) 2SL,MERCHANT EAST 25 2506CU,2000,2000,2000,2000,0,0%
UNIVERSITY 27-34 2LH,WCMP B,31.27318722,-101.7109925,31.29590816,-101.7108245,31.28454769,-101.7109085,UNIVERSITY 27-34 3LH,UNIVERSITY 27-34 1LH,632.4005535,674.6595,653.5300267,341.7732977,311.756729,91%
UNIVERSITY 09 910H,,31.28656944,-101.6038833,,,,,UNIVERSITY 27-34 3LH,UNIVERSITY 27-34 1LH,632.4005535,674.6595,653.5300267,341.7732977,311.756729,91%
SUGG-A- 1437NL,WCMP C,31.58687723,-101.3791386,31.60816122,-101.3788106,31.59751923,-101.3789746,SUGG-A- 1588NL,SUGG -A- 1581NL,2000,2000,2000,2000,0,0%
COATES 738 314H,,31.279543,-101.460015,,,,,SUGG-A- 1588NL,SUGG -A- 1581NL,2000,2000,2000,2000,0,0%
COATES 738 316H,,31.2796,-101.45385,,,,,SUGG-A- 1588NL,SUGG -A- 1581NL,2000,2000,2000,2000,0,0%
COATES 738 321H,,31.27985278,-101.4529667,,,,,SUGG-A- 1588NL,SUGG -A- 1581NL,2000,2000,2000,2000,0,0%
SRH NORTH 1629HU,WCMP B,31.46272444,-101.4841522,31.4440494,-101.4787328,31.45338692,-101.4814425,SRH NORTH 1437HU,SRH NORTH 1442HM,2000,2000,2000,2000,0,0%
SRH NORTH 1630HC,WCMP D,31.46288611,-101.4848178,31.44382602,-101.4786861,31.45335607,-101.481752,SRH NORTH 1338HC,ROCKER -B- SECTION 11 1106HC,2000,2000,2000,2000,0,0%
UNIVERSITY 09C 1102H,,31.2799517,-101.6477037,,,,,SRH NORTH 1338HC,ROCKER -B- SECTION 11 1106HC,2000,2000,2000,2000,0,0%
UNIVERSITY EAST 4324EH,WCMP B,31.08259,-101.277824,31.06129578,-101.2766073,31.07194289,-101.2772156,UNIVERSITY EAST 4324FH,UNIVERSITY EAST 4324AH,1090.887846,1820.769657,1455.828752,1098.318325,357.5104266,33%
UNIVERSITY 2 2601LH,WCMP B,31.28832111,-101.7000944,31.25985309,-101.7023762,31.2740871,-101.7012353,UNIVERSITY 2 2602LH,UNIVERSITY 09C 3611WB,1543.173417,2000,1771.586708,707.9667478,1063.61996,150%
UNIVERSITY 2 2602LH,WCMP B,31.28831944,-101.6999972,31.25989021,-101.697427,31.27410483,-101.6987121,UNIVERSITY 2 2601LH,UNIVERSITY 09C 3611WB,1543.173417,2000,1771.586708,408.304918,1363.28179,334%
SCHWARTZ 91 POOLED UNIT 3LH,WCMP B,31.23436028,-101.4388717,31.21747209,-101.4411241,31.22591619,-101.4399979,SCHWARTZ 91 POOLED UNIT 5LH,PEMBROOK 9121 POOLED UNIT 1H,1239.423548,2000,1619.711774,545.8395179,1073.872256,197%
UNIVERSITY 09B 609H,,31.288575,-101.5740028,,,,,SCHWARTZ 91 POOLED UNIT 5LH,PEMBROOK 9121 POOLED UNIT 1H,1239.423548,2000,1619.711774,545.8395179,1073.872256,197%
SRH-A- 1105SM,WCMP B,31.48028974,-101.429978,31.47716762,-101.4299968,31.47872868,-101.4299874,BOOK 190-28 (ALLOC-G) 7SM,BOOK-SUGG C (ALLOCATION) 1902HM,1697.170245,1993.092129,1845.131187,2000,154.868813,8%
SRH-A- 1105SM,WCMP B,31.48028974,-101.429978,31.46449528,-101.4300914,31.47239251,-101.4300347,SRH-A- 1104SM,SRH-A- 1106SM,648.4979705,723.846165,686.1720677,2000,1313.827932,66%
ALDWELL M R40 3H,WCMP B,31.460165,-101.671472,31.488181,-101.677839,31.474173,-101.6746555,ALDWELL M R40 2H,ALDWELL E48D 104H,880.7332165,1643.476523,1262.10487,1105.949494,156.155376,14%
UNIVERSITY 43-15 11H,WCMP B,31.10766111,-101.2922554,31.13169525,-101.2897806,31.11967818,-101.291018,UNIVERSITY 43-15 6H,UNIVERSITY 43-15 5H,475.7475028,533.8118669,504.7796848,1070.004467,565.2247826,53%
UNIVERSITY 27-34 4LH,WCMP B,31.27342639,-101.7177692,31.29604929,-101.7195149,31.28473784,-101.7186421,UNIVERSITY 27-34 1LH,UNIVERSITY 27-34 2LH,2000,2000,2000,2000,0,0%
HUGHES CHAR 7H,WCMP B,31.35685333,-101.4451769,31.37475712,-101.4454479,31.36580523,-101.4453124,BOLD TSRH UNIT 28S 2HL,HUGHES CHAR 1H,1745.67628,1843.144407,1794.410344,1954.860719,160.4503748,8%
ROCKER `B` 80H,WOLFCAMP SHALE,31.29051676,-101.2749697,31.26985588,-101.2752679,31.28018632,-101.2751188,ROCKER `B` 41H,ROCKER `B` 136H,2000,2000,2000,1648.386628,351.6133717,21%
TEXACO-COATES `A` UNIT 2 1HU,WCMP A,31.31671058,-101.4488278,31.34098858,-101.4503334,31.32884958,-101.4495806,HUGHES CHAR 4225H,MALONE 1-3 A 1A,1031.26505,2000,1515.632525,2000,484.367475,24%
SRH-A- 1104SM,WCMP B,31.48040506,-101.4338118,31.46442251,-101.4321741,31.47241379,-101.432993,SRH-A- 1105SM,SRH-A- 1106SM,648.4979705,1372.342162,1010.420066,1334.237074,323.8170079,24%
SRH-A- 1106SM,WCMP B,31.48072833,-101.4269939,31.46456973,-101.4277664,31.47264903,-101.4273802,SRH-A- 1107SM,SRH-A- 1105SM,665.4825498,723.846165,694.6643574,588.1283017,106.5360557,18%
UNIVERSITY EAST 4325EH,WCMP C,31.07943889,-101.2960861,31.05787042,-101.296026,31.06865466,-101.2960561,UNIVERSITY EAST 4324HH,UNIVERSITY 49 809H,2000,2000,2000,2000,0,0%
UNIVERSITY `2-20` 75H,WCMP B,31.28198754,-101.739115,31.31073706,-101.7388767,31.2963623,-101.7389959,UNIVERSITY `2-20` 50H,UNIVERSITY `2-20` 47H,1875.919411,2000,1937.959705,2000,62.040295,3%
COATES 738 333HS,WCMP A,31.279669,-101.451549,31.248837,-101.45194,31.264253,-101.4517445,COATES 738 328HS,COATES 738 321HT,637.3782535,1405.106464,1021.242359,990.1227312,31.11962777,3%
HAM B 1814HA,WCMP B,31.381481,-101.632544,31.406092,-101.640479,31.3937865,-101.6365115,HAM B 1817HC,HAM B 1810HK,375.682711,653.3414035,514.5120573,438.2598212,76.25223612,17%
HAM B 1817HC,WCMP B,31.381523,-101.632358,31.406341,-101.639308,31.393932,-101.635833,HAM B 1815HK,HAM B 1814HA,361.1097588,375.682711,368.3962349,209.1034505,159.2927844,76%
HAM B 1815HK,WCMP B,31.381495,-101.632481,31.406093,-101.640431,31.393794,-101.636456,HAM B 1817HC,HAM B 1810HK,361.1097588,667.6405754,514.3751671,438.0990975,76.27606957,17%
HAM B 1801HS,WOLFCAMP,31.380855,-101.636738,31.404922,-101.644442,31.3928885,-101.64059,HAM B 1808HS,HAM B 1813HS,663.1820858,1325.934435,994.5582605,991.2832787,3.274981774,0%
SUGG E 197-195 (ALLOCATION-C) 3SU,WCMP B,31.58798936,-101.4541903,31.55873794,-101.4544299,31.57336365,-101.4543101,SUGG E 197-195 (ALLOCATION-B) 2SU,SUGG A 197-195 (ALLOCATION-D) 4SU,872.6947128,878.0442158,875.3694643,1099.277005,223.9075408,20%
RINGO 8-9 4404H,WCMP B,31.44514493,-101.7415017,31.41561951,-101.7324832,31.43038222,-101.7369925,RINGO 8-9-D 4307H,RINGO (8 -9) 4401H,985.2545604,1004.264442,994.759501,838.4567723,156.3027287,19%
SUGG -A- 1713SU,WOLFCAMP SHALE,31.58748958,-101.4202103,31.55835166,-101.4217264,31.57292062,-101.4209684,SUGG -A- 1714SU,SUGG -A- 1715SU,702.1324698,1361.24505,1031.68876,865.7422629,165.9464971,19%
BODINE A 174-173 (ALLOCATION-B) 2RC,WCMP D,31.63781918,-101.4234643,31.61047174,-101.4233874,31.62414546,-101.4234259,BODINE A 174-173 (ALLOCATION-G) 7SC,SUGG -A- 1841NC,2000,2000,2000,2000,0,0%
BAST 34-39 4412H,WCMP B,31.50896492,-101.7174201,31.48159258,-101.7083849,31.49527875,-101.7129025,BAST `34-39` 4415H,ALDWELL K R 40 9H,888.0387791,2000,1444.01939,1511.960747,67.94135689,4%
MUSTANG DRAW 41YN,WCMP C,31.45547222,-101.3135556,31.48217221,-101.3131936,31.46882222,-101.3133746,COPE 107-108 47HD,COPE 82-83 47HD,2000,2000,2000,2000,0,0%
UNIVERSITY 27-34 8LH,,31.27362139,-101.7061703,,,,,COPE 107-108 47HD,COPE 82-83 47HD,2000,2000,2000,2000,0,0%
POLO 1605A 1H,WOLFCAMP,31.5582509,-101.6415906,31.57800556,-101.6479528,31.56812823,-101.6447717,POLO 1604A 1H,MARCO 1603A 2H,1077.937419,2000,1538.96871,1416.619714,122.3489956,9%
ROCKER B 20-21 32HA,WCMP B,31.442725,-101.4841444,31.47038404,-101.4925776,31.45655452,-101.488361,ROCKER B 20-21 30HE,SRH NORTH 1430HU,312.0050864,2000,1156.002543,2000,843.997457,42%
BRYNLEE `9-8` 4411H,WCMP B,31.44893333,-101.7161,31.421045,-101.7085949,31.43498916,-101.7123475,BRYNLEE 9 & 8 4409H,BRYNLEE 9-8 4413H,625.2294259,650.0326208,637.6310234,638.2203094,0.589286024,0%
POLO 1604BL 2H,WCMP B,31.55724444,-101.64515,31.57756389,-101.6504833,31.56740417,-101.6478167,MARCO 1602BU 2H,MARCO 1601BU 2H,2000,2000,2000,2000,0,0%
UNIVERSITY UNIT 1 RE 10 4 38HK,WCMP B,31.28555,-101.501363,31.309211,-101.500652,31.2973805,-101.5010075,UNIVERSITY `10-9` 6H,UNIVERSITY `10-9` 7H,2000,2000,2000,2000,0,0%
COPE 82-81 07HA,WCMP B,31.510171,-101.323196,31.482351,-101.323351,31.496261,-101.3232735,COPE 82-81 71HE,COPE 82-81 22HA,273.1806528,1927.558313,1100.369483,2000,899.630517,45%
MERCHANT 1410BU,WCMP B,31.56904167,-101.6208767,31.54892691,-101.6142721,31.55898429,-101.6175744,MERCHANT 1412BA,MERCHANT 1409BU,759.5416145,835.4450608,797.4933377,1056.993256,259.4999186,25%
SUGG -A- 1438SM,WCMP B,31.58765808,-101.3775094,31.56511801,-101.377854,31.57638805,-101.3776817,SUGG -A- 1423HM,SUGG -A- 1584HM,2000,2000,2000,2000,0,0%
RINGO 10 & 7 4405H,WCMP B,31.45111111,-101.7057778,31.43046111,-101.7005889,31.44078611,-101.7031834,HARTGROVE 0304 E 5HM,HARTGROVE 0304 C 3HU,2000,2000,2000,2000,0,0%
MERCHANT 1410A,WOLFCAMP,31.56893472,-101.6208461,31.5489054,-101.6143701,31.55892006,-101.6176081,MERCHANT 1412A,MERCHANT 1409A,1071.923073,1149.498782,1110.710927,1214.454598,103.7436713,9%
MERCHANT 1412BA,WCMP B,31.57289639,-101.6179633,31.54938623,-101.6118887,31.56114131,-101.614926,MERCHANT 1410BU,MERCHANT 1412BU,759.5416145,882.386708,820.9641613,789.3705445,31.59361682,4%
MERCHANT 1412A,WOLFCAMP,31.5730025,-101.6179964,31.55335691,-101.6117908,31.56317971,-101.6148936,MERCHANT 1412A,MERCHANT 1414A,1388.823101,1614.695918,1501.759509,894.562523,607.196986,68%
BLOXOM RE 1 193 17HA,WCMP B,31.220056,-101.293967,31.189361,-101.292602,31.2047085,-101.2932845,BLOXOM A RE 1 193 32HA,SECTION 235-220 ALLOCATION 10 18HK,1983.346946,2000,1991.673473,1957.30055,34.37292342,2%
HOLT C 132-130 (ALLOCATION-D) 4NM,WCMP A,31.56379642,-101.3691425,31.59347904,-101.3672493,31.57863773,-101.3681959,SUGG B131-130 (ALLOCATION-B) 2NU,SUGG -A- 142OH,1632.217973,2000,1816.108986,1998.336244,182.2272579,9%
KATHRYN 43-42 4401H,WCMP B,31.45236836,-101.7643937,31.48081346,-101.7734554,31.46659091,-101.7689246,FRANK POWELL 30-31 3101BH,KATHRYN 43 & 42 4303H,494.133846,792.3316444,643.2327452,1364.029958,720.7972127,53%
SUGG E 208-207 (ALLOCATION-H) 8NU,WCMP A,31.58726912,-101.4609213,31.60910277,-101.4621221,31.59818594,-101.4615217,SUGG E 197-198 (ALLOCATION-A) 1NU,SUGG E 208-207 (ALLOCATION-F) 6NU,911.0586606,1324.756609,1117.907635,1005.522546,112.3850885,11%
SMOLTZ JOHN 30-33 4407H,WCMP B,31.5532,-101.5603597,31.53185615,-101.5535334,31.54252808,-101.5569466,SMOLTZ JOHN 30-33 4405H,SMOLTZ JOHN 30-33 4403H,687.6300333,1355.046787,1021.33841,1207.506176,186.1677663,15%
SUGG A 171-173 (ALLOCATION-E) 5NU,WCMP B,31.58606009,-101.4197503,31.62335564,-101.4178568,31.60470787,-101.4188036,TAYLOR A 14-16 (ALLOCATION-F) 6NM,FRYSAK B 47-15 (ALLOCATION-C) 3SM,2000,2000,2000,2000,0,0%
RINGO 8 & 9 4214H,WCMP A,31.44713,-101.7310042,31.41793603,-101.7222141,31.43253302,-101.7266092,RINGO 8-9-F 4211H,RINGO 8-9-DZ 4108H,937.7822868,1960.826641,1449.304464,1626.943477,177.6390133,11%
TEXACO-PARISH UNIT 4 1HU,WCMP A,31.319,-101.4627778,31.29444444,-101.4649167,31.30672222,-101.4638473,TEXACO-PARISH UNIT 3 2HU,TEXACO-PARISH UNIT 2 2HU,1272.97567,2000,1636.487835,1745.512106,109.0242714,6%
COPE 107-108 75HE,,31.51014,-101.33193,31.482303,-101.330873,31.4962215,-101.3314015,TEXACO-PARISH UNIT 3 2HU,TEXACO-PARISH UNIT 2 2HU,1272.97567,2000,1636.487835,1745.512106,109.0242714,6%
UNIVERSITY CENTRAL 0112BH,WCMP A,31.15610647,-101.6732761,31.12822379,-101.6726766,31.14216513,-101.6729764,UNIVERSITY CENTRAL 0112AH,UNIVERSITY CENTRAL 0112FH,745.7407598,2000,1372.87038,1098.995906,273.8744742,25%
BOLD WTG 5-234 1HM,WCMP B,31.17428944,-101.3333978,31.14644444,-101.3332222,31.16036694,-101.33331,WTG 5-233 A 2BU,UNIVERSITY 48-09 4H,764.6171166,1974.013299,1369.315208,1278.280621,91.0345872,7%
COPE 107-108 07HA,WCMP A,31.510491,-101.340529,31.48214413,-101.3404477,31.49631757,-101.3404884,COPE 107 1H,COPE 107 16HS,622.9914279,1348.137792,985.5646102,922.5575199,63.00709025,7%
GRAHAM 186-187 (ALLOCATION-E) 5SM,WCMP B,31.56488766,-101.434853,31.54395425,-101.4345548,31.55442095,-101.4347039,SUGG A 185-187 (ALLOCATION-G) 7SM,GRAHAM 186-187 (ALLOCATION-D) 4SM,801.1329255,835.9368993,818.5349124,1457.303155,638.7682424,44%
GRAHAM 186-187 (ALLOCATION-D) 4SM,WCMP B,31.56494908,-101.4380485,31.543961,-101.437244,31.55445504,-101.4376463,GRAHAM 186-187 (ALLOCATION-E) 5SM,SUGG A 185-187 (ALLOCATION-G) 7SM,835.9368993,1636.992622,1236.46476,1457.303155,220.8383948,15%
SUGG A 185-187 (ALLOCATION-G) 7SM,WCMP B,31.5793975,-101.4319102,31.54390506,-101.4319782,31.56165128,-101.4319442,GRAHAM 186-187 (ALLOCATION-E) 5SM,GRAHAM 186-187 (ALLOCATION-D) 4SM,801.1329255,1636.992622,1219.062774,2000,780.937226,39%
UNIVERSITY CENTRAL 0112EH,WCMP A,31.156365,-101.67783,31.128282,-101.679765,31.1423235,-101.6787975,UNIVERSITY CENTRAL 0112IH,UNIVERSITY CENTRAL 0112OH,685.8097157,1447.188962,1066.499339,1160.695543,94.19620449,8%
UNIVERSITY CENTRAL 0112KH,WCMP B,31.156389,-101.68116,31.128278,-101.680875,31.1423335,-101.6810175,UNIVERSITY CENTRAL 0112HH,UNIVERSITY CENTRAL 0112NH,1473.405557,1477.841378,1475.623467,1332.812613,142.8108537,11%
RINGO-BIRD 7C 3H,WCMP B,31.43407017,-101.7563378,31.45471628,-101.7586569,31.44439323,-101.7574974,RINGO-BIRD 7A 1H,WELCH TRUST 8 4411H,1847.526361,2000,1923.76318,1484.199586,439.5635939,30%
UNIVERSITY CENTRAL 0810CH,WCMP C,31.19990383,-101.6270838,31.17138389,-101.627487,31.18564386,-101.6272854,UNIVERSITY 9 2708WC,UNIVERSITY CENTRAL 829BH,2000,2000,2000,2000,0,0%
HAWKER WEST UNIT 1501A,WOLFCAMP,31.558942,-101.638516,31.58596667,-101.6470833,31.57245434,-101.6427997,HAWKER WEST UNIT 1502A 2H,HAWKER EAST UNIT 1503A,1052.176782,2000,1526.088391,1346.81946,179.2689315,13%
VESPUCCI 904BL 2H,WCMP B,31.57798611,-101.6521194,31.59511104,-101.656188,31.58654858,-101.6541537,VESPUCCI 905B 2H,VESPUCCI 903B 3H,2000,2000,2000,2000,0,0%
PAIGE `13A-12A` 4409H,WCMP C,31.56759167,-101.5978472,31.59514444,-101.6063722,31.58136806,-101.6021097,PAIGE 13A & 12A 4810H,PAIGE 13C-12-H `48-42` 4415H,360.0476011,1865.112007,1112.579804,1065.043484,47.53632029,4%
VESPUCCI 903B 3H,WCMP B,31.57726667,-101.6552917,31.60494722,-101.6624306,31.59110695,-101.6588612,AMERIGO 903BL 1H,VESPUCCI 905B 2H,1015.144389,1726.097065,1370.620727,894.0520956,476.5686314,53%
VESPUCCI 905A 1H,WOLFCAMP,31.57890833,-101.6480333,31.60589167,-101.6576056,31.5924,-101.6528195,VESPUCCI 904A 1H,AMERIGO 903A 2H,1096.692299,2000,1548.346149,1612.125696,63.77954737,4%
VESPUCCI 905B 2H,WCMP B,31.57893611,-101.6479083,31.60620833,-101.657075,31.59257222,-101.6524917,VESPUCCI 903B 3H,AMERIGO 903BL 1H,1726.097065,2000,1863.048533,2000,136.951467,7%
WTG UNIT 4-232 1H,WCMP B,31.17476405,-101.3643828,31.14630556,-101.3673333,31.1605348,-101.3658581,UNIVERSITY 48 0701H,BOLD WTG 1 3HL,209.0818862,2000,1104.540943,2000,895.459057,45%
SUGG-A- 1573SM,WCMP B,31.6079884,-101.4050221,31.56538183,-101.4056616,31.58668512,-101.4053419,SUGG-A- 1574SM,SUGG -A- 1581SM,723.6136398,1127.838147,925.7258932,1313.249129,387.5232361,30%
HAWKER 1505A 1H,WOLFCAMP,31.56190472,-101.6245236,31.58902546,-101.633919,31.57546509,-101.6292213,MERCHANT 1401A,HAWKER EAST UNIT 1504A,1037.620896,1097.556296,1067.588596,1116.60668,49.01808444,4%
BAST `33-40` 4213H,WCMP A,31.5074171,-101.7321828,31.478033,-101.724063,31.49272505,-101.7281229,BAST `34-39` 4215H,KATHRYN (44-5) 4215H,2000,2000,2000,2000,0,0%
KATHRYN (44-5) 4215H,WCMP A,31.47599897,-101.7387981,31.44641955,-101.7296052,31.46120926,-101.7342016,KATHRYN 44-5 4205H,KATHRYN 44-5-A 4201H,2000,2000,2000,2000,0,0%
SUGG-D- 1042NM,WCMP B,31.5485276,-101.3408315,31.57865577,-101.3391005,31.56359169,-101.339966,SUGG-D- 1041NM,SUGG -D- 1044NM,616.3625506,1278.794067,947.5783085,1111.852139,164.2738306,15%
HAWKER EAST UNIT 1503A,WOLFCAMP,31.56031611,-101.6324042,31.58734444,-101.6403694,31.57383028,-101.6363868,HAWKER EAST UNIT 1504A,HAWKER WEST UNIT 1502A 2H,998.3120568,1093.87015,1046.091103,1104.194676,58.1035727,5%
KOUFAX SANDY 5 4403H,WCMP B,31.497975,-101.5659333,31.48494167,-101.560725,31.49145834,-101.5633292,KOUFAX SANDY 5 4401H,HAIL TAP ROCK 1H,665.2514735,2000,1332.625737,1166.487883,166.137854,14%
UNIVERSITY CENTRAL 0803HH,WCMP B,31.203137,-101.624003,31.17276,-101.623992,31.1879485,-101.6239975,UNIVERSITY CENTRAL 0803GH,UNIVERSITY CENTRAL 0803CH,2000,2000,2000,1746.838678,253.1613217,14%
OLIVER (39-34) 4807H,WCMP C,31.50169795,-101.6145299,31.53088446,-101.6236525,31.51629121,-101.6190912,OLIVER `39-34` 4401H,TAYLOR 45 & 33 4807H,1961.843505,2000,1980.921753,1956.310447,24.61130645,1%
TSRH UNIT 28S 8A,WCMP A,31.39789444,-101.4300222,31.37770556,-101.4296861,31.3878,-101.4298542,BULLHEAD 729LN,BULLHEAD 722AN,281.5974378,348.27039,314.9339139,2000,1685.066086,84%
DEVIN 25-24 4801H,WCMP C,31.53756126,-101.5970065,31.56514786,-101.605838,31.55135456,-101.6014223,DEVIN 25-24-F 4411H,MERCHANT 2311HD,2000,2000,2000,2000,0,0%
DEVIN 25-24 4401H,WCMP C,31.53749856,-101.5972859,31.54418721,-101.5992563,31.54084289,-101.5982711,MERCHANT 1416BL,DEVIN 25-24 4801H,2000,2000,2000,2000,0,0%
LANE TRUST E 43-42 (ALLOCATION-D) 4NU,WCMP A,31.63413441,-101.4980788,31.65727095,-101.5047287,31.64570268,-101.5014038,WILKINSON 31 (ALLOCATION) 13H,LANE TRUST E 43-42 (ALLOCATION-E) 5NU,216.4586109,697.5423876,457.0004992,976.9135747,519.9130755,53%
ROCK HOLLOW D 1851CS,WCMP B,31.23200556,-101.2802583,31.20393611,-101.2806667,31.21797084,-101.2804625,ROCK HOLLOW D 1851SH,WOODS RE 210 27HA,294.7704389,2000,1147.385219,2000,852.614781,43%
ROCK HOLLOW D 1852SH,WOLFCAMP SHALE,31.23200278,-101.2801306,31.20394167,-101.2797,31.21797222,-101.2799153,TUCKER UNIT 1 RE 1 184 17HA,SECTION 235-220 ALLOCATION 02 01HS,2000,2000,2000,2000,0,0%
LANE TRUST E 43-42 (ALLOCATION-A) 1NU,WCMP A,31.63295219,-101.5031345,31.65590039,-101.5111,31.64442629,-101.5071173,WILKINSON 31 (ALLOCATION) 14H,WILKINSON 31 (ALLOCATION) 13H,761.0071036,2000,1380.503552,1378.042055,2.461496795,0%
LANE TRUST E 43-42 (ALLOCATION-E) 5NM,WCMP B,31.63474858,-101.4954225,31.65752789,-101.5035132,31.64613824,-101.4994679,LANE TRUST E 43-42 (ALLOCATION-C) 3NM,LANE TRUST E 43-42 (ALLOCATION-F) 6NM,839.5267599,901.0645143,870.2956371,793.4598566,76.83578054,10%
DIVIDE-SCOTT T 1477SH,WCMP B,31.267496,-101.386454,31.23447364,-101.3886518,31.25098482,-101.3875529,DIVIDE-SCOTT V 1478SH,DIVIDE-SCOTT X 1471SH,896.3906301,2000,1448.195315,1244.290573,203.9047423,16%
MUSTANG DRAW 25AN,WCMP A,31.45457278,-101.2996781,31.48247222,-101.2981389,31.4685225,-101.2989085,MUSTANG DRAW 24AN,COPE 82-81 36HS,1106.691525,2000,1553.345762,1297.381279,255.9644826,20%
SUGG-B- 1334SU,SPBYL SD,31.53787339,-101.3691885,31.51378543,-101.3699031,31.52582941,-101.3695458,MERCHANT UNIT 93,MERCHANT UNIT 206B,2000,2000,2000,2000,0,0%
UNIVERSITY `2-20` 77H,WCMP D,31.282914,-101.74173,31.31075,-101.742562,31.296832,-101.742146,UNIVERSITY `2-20` 78H,UNIVERSITY `2-20` 76H,1163.639884,1218.467526,1191.053705,605.5887106,585.4649944,97%
WTG 5-234 B 3HM,WCMP B,31.17650671,-101.3181897,31.15458274,-101.3200099,31.16554473,-101.3190998,UNIVERSITY OWENS 1-6 1HB,WTG 5-234 B 3HM,2000,2000,2000,1722.352938,277.6470623,16%
CHRISTY-THOMASON 15A 101H,WCMP B,31.41454361,-101.7664764,31.44961996,-101.7809489,31.43208179,-101.7737127,CHRISTY-THOMASON 15B 102H,CHRISTY-THOMASON 15C 103H,491.5049912,870.2220504,680.8635208,362.1044881,318.7590327,88%
ROCKER B 20-21 14HT,WOLFCAMP,31.467314,-101.501792,31.440372,-101.490736,31.453843,-101.496264,ROCKER B 20-21 2H,ROCKER B 20-21 16HS,289.6619084,326.192124,307.9270162,450.9358432,143.008827,32%
ROCKER B 20-21 26HS,WOLFCAMP,31.46821808,-101.4979631,31.441583,-101.485541,31.45490054,-101.4917521,ROCKER B 20-21 24HT,ROCKER B 20-21 21HS,599.2214316,725.870256,662.5458438,344.1415967,318.4042471,93%
UNIVERSITY 9 2830WB,WCMP B,31.2387511,-101.6193127,31.2150415,-101.618512,31.2268963,-101.6189123,UNIVERSITY 9 2714WB,UNIVERSITY 9 2814WB,2000,2000,2000,2000,0,0%
HICKMAN P 2075AS,WCMP A,31.203476,-101.342345,31.17558333,-101.3417222,31.18952967,-101.3420336,HICKMAN N 2074AS,HICKMAN AL04 2071LS,702.2275779,1920.501785,1311.364681,1122.198294,189.1663871,17%
COATES 738 318HS,,31.278605,-101.457532,,,,,HICKMAN N 2074AS,HICKMAN AL04 2071LS,702.2275779,1920.501785,1311.364681,1122.198294,189.1663871,17%
HOLT E 130-132 (ALLOCATION-D) 4SU,WCMP A,31.59315927,-101.367849,31.55043851,-101.3697173,31.57179889,-101.3687832,HOLT E 130-132 (ALLOCATION-E) 5SU,SUGG B131- 132 (ALLOCATION-B) 2SU,838.5209159,1173.914012,1006.217464,925.1031201,81.11434387,9%
TAYLOR A 14-16 (ALLOCATION-G) 7NU,WCMP A,31.61084479,-101.427692,31.63464025,-101.4298187,31.62274252,-101.4287553,HALFMANN OIL UNIT 47-15 (ALLOCATION-B) 2SU,FRYSAK B 47-15 (ALLOCATION-C) 3SU,206.8915169,911.4342546,559.1628858,1232.772535,673.6096492,55%
JALONICK 40-45 242,WCMP C,31.51277778,-101.6335639,31.49276528,-101.6259533,31.50277153,-101.6297586,TAYLOR 45 & 33 4807H,TAYLOR 45 & 33 4407H,2000,2000,2000,1392.441879,607.5581209,44%
BAST 32 & 41 4315H,WCMP B,31.50423333,-101.7474417,31.4750147,-101.7384461,31.48962402,-101.7429439,ALDWELL K R 40 3H,ALDWELL K R 40 5H,1550.867881,2000,1775.43394,1539.806753,235.6271871,15%
GOLDENROD 13 1LB,WCMP B,31.4141346,-101.7449263,31.3989749,-101.7392942,31.40655475,-101.7421103,GOLDENROD 13 2UB,EAGLEHEAD `A-A3` 3LH,648.6831307,1392.322973,1020.503052,1199.576159,179.0731066,15%
UNIVERSITY 35-19 40 104HB,WCMP B,31.28745944,-101.6967356,31.31765833,-101.6957083,31.30255889,-101.696222,UNIVERSITY 2-58 2501WC,UNIVERSITY 2-58 2511WB,2000,2000,2000,2000,0,0%
UNIVERSITY 35-19 40 304HB,WCMP B,31.28740917,-101.6968117,31.31765556,-101.6956972,31.30253236,-101.6962545,UNIVERSITY 2-58 2501WC,UNIVERSITY 2-58 2511WB,2000,2000,2000,2000,0,0%
HICKMAN 206-223 ALLOCATION C2 15HC,WCMP B,31.203286,-101.358878,31.17575,-101.362302,31.189518,-101.36059,HICKMAN 206-223 ALLOCATION C4 12HA,HICKMAN 206-223 ALLOCATION C3 20HC,361.4163035,662.012831,511.7145673,423.180199,88.53436825,21%
HICKMAN 206-223 ALLOCATION C3 20HC,WCMP B,31.203427,-101.358779,31.175716,-101.360181,31.1895715,-101.35948,HICKMAN ALLOCATION B 22HA,HICKMAN 206-223 ALLOCATION B2 25HC,316.4727639,646.2930488,481.3829063,337.5549508,143.8279555,43%
UNIVERSITY TEMA 1H,WCMP B,31.132067,-101.410374,31.14550278,-101.409275,31.13878489,-101.4098245,UNIVERSITY 49-1 4H,UNIVERSITY 49-1 5H,2000,2000,2000,2000,0,0%
DEVIN 25-24-H 4415H,WCMP B,31.54074881,-101.5824237,31.56827703,-101.5914984,31.55451292,-101.5869611,DEVIN 25-24-F 4411H,PAIGE 13A & 12A 4810H,1330.42412,1819.530391,1574.977256,1657.995434,83.01817795,5%
DEVIN 25-24-H 4215H,WOLFCAMP,31.54070686,-101.5826099,31.56829071,-101.5914582,31.55449879,-101.5870341,DEVIN 25-24-D 4107H,MERCHANT 1412A,2000,2000,2000,2000,0,0%
UNIVERSITY CENTRAL 0823FH,WOLFCAMP SHALE,31.16626,-101.645676,31.142546,-101.635688,31.154403,-101.640682,UNIVERSITY CENTRAL 812CH,UNIVERSITY CENTRAL 0810BH,2000,2000,2000,2000,0,0%
SUGG-D- 1045SM,WOLFCAMP SHALE,31.55299432,-101.3322502,31.51124606,-101.333496,31.53212019,-101.3328731,SUGG-D- 1046SM,SUGG-D- 1044SM,775.8357966,997.3969059,886.6163512,998.866514,112.2501628,11%
POWELL FRANK 20-29 2908BH,WCMP B,31.53465917,-101.7585853,31.50302,-101.74783,31.51883959,-101.7532077,POWELL FRANK 20-29 2907BH,POWELL FRANK 20-29 2917AH,450.7259644,452.6965583,451.7112613,552.1439574,100.4326961,18%
RICKER-HUGHES 2-1 E 251,WCMP B,31.51106306,-101.5099083,31.48306,-101.5031639,31.49706153,-101.5065361,ROCKER B 20-21 30HE,ROCKER B 20-21 32HA,2000,2000,2000,2000,0,0%
HICKMAN 206-223 ALLOCATION A4 32HA,WCMP B,31.20267375,-101.3533263,31.175637,-101.354863,31.18915538,-101.3540947,HICKMAN 206-223 ALLOCATION A2 35HC,HICKMAN 206-223 ALLOCATION B3 27HA,320.8595457,716.4484579,518.6540018,873.1478733,354.4938715,41%
CHICO EAST 2-28 ALLOCATION 02 206HS,WCMP A,31.147738,-101.434093,31.17629,-101.433159,31.162014,-101.433626,CHICO EAST ALLOCATION A 236HS,CHICO AL02 11AN,2000,2000,2000,2000,0,0%
UNIVERSITY 9 2901WC,WCMP B,31.23522,-101.60257,31.25881944,-101.6006167,31.24701972,-101.6015934,UNIVERSITY 9 2805H,UNIVERSITY 09 902H,1769.602423,2000,1884.801211,1781.156341,103.6448698,6%
NORTH CREEK B 431CN,WCMP B,31.37804167,-101.4061167,31.40605833,-101.4067722,31.39205,-101.4064445,NORTH CREEK B 431NH,NORTH CREEK B AL03 483CN,798.2853594,2000,1399.14268,1229.448596,169.6940836,14%
NORTH CREEK B 431NH,WCMP B,31.37803611,-101.4057333,31.40601944,-101.4042083,31.39202778,-101.4049708,NORTH CREEK B 431CN,NORTH CREEK B AL03 483CN,798.2853594,1306.67366,1052.47951,1123.793336,71.31382557,6%
SUGG A 141-140 (ALLOCATION-G) 7SM,WOLFCAMP SHALE,31.5640718,-101.3789765,31.53598372,-101.3801928,31.55002776,-101.3795847,SUGG A 141-140 (ALLOCATION-H) 8SM,HOLT E 130-132 (ALLOCATION-F) 6SM,638.808051,2000,1319.404026,1171.924486,147.4795395,13%
SUGG A 141-140 (ALLOCATION-H) 8SU,WCMP A,31.5640743,-101.3788971,31.5359801,-101.3792559,31.5500272,-101.3790765,SUGG A 141-140 (ALLOCATION-G) 7SU,SUGG A 141-140 (ALLOCATION-F) 6SU,661.3702578,1337.142336,999.2562967,984.0160636,15.24023312,2%
RCR 180-197 ALLOCATION 04 29HT,WCMP A,31.20619,-101.352964,31.233662,-101.355038,31.219926,-101.354001,RCR 180-197 ALLOCATION 05 26HS,RCR 180-197 ALLOCATION 03 31HS,256.3723466,354.0484275,305.210387,471.6837474,166.4733604,35%
DRIVER E28R 118H,WCMP B,31.64302409,-101.6701882,31.67027922,-101.6758612,31.65665166,-101.6730247,DRIVER E28Q 117H,DRIVER 27 3H,848.6649373,1072.922218,960.7935775,659.1572096,301.6363679,46%
DRIVER W28Q 17H,WCMP B,31.64179358,-101.6794834,31.65058438,-101.6809809,31.64618898,-101.6802322,DRIVER W28P 16H,DRIVER E28P 116H,2000,2000,2000,2000,0,0%
WEATHERBY 1225-1226 ALLOCATION 01 47HD,WCMP C,31.345603,-101.598046,31.317394,-101.598342,31.3314985,-101.598194,WATKINS 1229 3H,VICTOR 1223 4804H,2000,2000,2000,2000,0,0%
RCR 180-197 ALLOCATION 05 26HS,WCMP A,31.206016,-101.357179,31.233668,-101.35586,31.219842,-101.3565195,RCR 180-197 ALLOCATION 04 29HT,RCR 180-197 ALLOCATION 06 24HT,256.3723466,393.8701981,325.1212723,301.2090296,23.9122427,8%
ROCKER B 20-21 34HA,,31.467771,-101.502272,,,,,RCR 180-197 ALLOCATION 04 29HT,RCR 180-197 ALLOCATION 06 24HT,256.3723466,393.8701981,325.1212723,301.2090296,23.9122427,8%
ALDWELL K R 40 7H,WCMP B,31.45119583,-101.7169536,31.477193,-101.726316,31.46419442,-101.7216348,BAST 33-40 4412H,BAST `33-40` 4413H,512.3022614,794.2258789,653.2640702,1373.958151,720.6940805,52%
UNIVERSITY 10 2601HB,WCMP B,31.23506806,-101.5487378,31.25833392,-101.5498118,31.24670099,-101.5492748,UNIVERSITY `10-14` 5H,UNIVERSITY 10-13 5H,609.1909767,934.6076216,771.8992991,2000,1228.100701,61%
SRH-A- 1110SU,WOLFCAMP SHALE,31.47664506,-101.419404,31.45045113,-101.4190981,31.4635481,-101.4192511,SRH-A- 1111SU,BOLD TSRH UNIT 28N 3HM,1236.482665,2000,1618.241332,1694.932295,76.6909629,5%
SRH-A- 1111SU,WOLFCAMP SHALE,31.48080488,-101.4159091,31.45047438,-101.4151244,31.46563963,-101.4155168,SRH-A- 1110SU,BOLD TSRH UNIT 28N 3HM,1236.482665,2000,1618.241332,1694.932295,76.6909629,5%
UNIVERSITY 9C 0102WC,WCMP B,31.29056111,-101.6662556,31.25934722,-101.6666944,31.27495416,-101.666475,UNIVERSITY 9C 0101WC,UNIVERSITY 9C 3603WB,471.1979652,2000,1235.598983,1125.139147,110.459836,10%
SUGG-B- 1347MA,WCMP B,31.5363519,-101.3639706,31.50669235,-101.3633763,31.52152213,-101.3636735,SUGG-B- 1347MB,SUGG-B- 1346SM,229.9478909,607.4511926,418.6995418,401.2407954,17.45874645,4%
UNIVERSITY 25W R 2HU,WOLFCAMP SHALE,31.31651278,-101.5985583,31.3029291,-101.5993615,31.30972094,-101.5989599,UNIVERSITY 2404 HZ UNIT 4HU,UNIVERSITY 2404 HZ UNIT 2HU,2000,2000,2000,2000,0,0%
SRH-A- 1111RB,WCMP A,31.47664617,-101.419324,31.45050528,-101.4172023,31.46357573,-101.4182632,SRH -A- 1108SU,SRH -A- 1114SU,1886.474687,2000,1943.237343,1886.027912,57.20943079,3%
SRH-A- 1111SM,WCMP B,31.48080377,-101.4159891,31.45043205,-101.4165242,31.46561791,-101.4162567,SRH -A- 1114SM,SRH -A- 1108SM,2000,2000,2000,1829.25725,170.7427498,9%
COPE 82-83 04HT,,31.510144,-101.321784,,,,,SRH -A- 1114SM,SRH -A- 1108SM,2000,2000,2000,1829.25725,170.7427498,9%
COPE 82-83 09HT,,31.510199,-101.321786,,,,,SRH -A- 1114SM,SRH -A- 1108SM,2000,2000,2000,1829.25725,170.7427498,9%
HARTGROVE 4H,WCMP B,31.341561,-101.7298405,31.3659805,-101.7380948,31.35377075,-101.7339677,HARTGROVE 4H,HARTGROVE 3H,798.739308,1473.138422,1135.938865,573.8008172,562.1380478,98%
WELCH TRUST 8-7-E 4309H,WCMP B,31.450545,-101.7723686,31.47961545,-101.7818419,31.46508023,-101.7771053,KATHRYN 43-42 4401H,FRANK POWELL 30-31 3101BH,2000,2000,2000,2000,0,0%
HOLT 112-110 (ALLOCATION-D) S043MA,WCMP B,31.54152472,-101.352491,31.50663751,-101.3528551,31.52408112,-101.352673,HOLT 112-110 (ALLOCATION-B) S023MA,HOLT 112-110 (ALLOCATION-B) S022MB,886.4531996,1101.342185,993.8976924,1075.619457,81.72176486,8%
DRIVER E28P 113H,WOLFCAMP,31.64295028,-101.6704975,31.66871075,-101.6823182,31.65583051,-101.6764079,DRIVER E28Q 114H,DRIVER W28R 15H,805.7842354,893.8969769,849.8406062,634.6467106,215.1938956,34%
DRIVER E28Q 114H,WOLFCAMP,31.64296563,-101.6704365,31.66931324,-101.6798209,31.65613944,-101.6751287,DRIVER E28P 113H,DRIVER E28R 115H,805.7842354,867.1192044,836.4517199,428.2377297,408.2139902,95%
HOLT 1223-1221 ALLOCATION 01 01HS,WCMP A,31.344794,-101.580173,31.317277,-101.581295,31.3310355,-101.580734,WEATHERBY 1225-1226 ALLOCATION 05 36HS,HOLT RE 1222 26HS,729.1568811,2000,1364.578441,1424.942019,60.36357802,4%
SUGG B 163-162 (ALLOCATION-D) 4NM,WOLFCAMP,31.50778895,-101.4038445,31.53570143,-101.404291,31.52174519,-101.4040678,SUGG B 163-162 (ALLOCATION-C) N032MC,VON GONTEN 160-161 (ALLOCATION-C) 3SM,393.2682437,460.0861089,426.6771763,732.8865575,306.2093812,42%
SUGG B 163-162 (ALLOCATION-F) 6NM,WCMP B,31.50794809,-101.4017026,31.53567697,-101.399198,31.52181253,-101.4004503,VON GONTEN 160-161 (ALLOCATION-G) 7SM,VON GONTEN 160-161 (ALLOCATION-E) 5SM,668.916445,698.4514318,683.6839384,1208.264239,524.5803008,43%
SUGG B 163-162 (ALLOCATION-G) 7NM,WCMP B,31.50794971,-101.3972399,31.53566,-101.3967145,31.52180486,-101.3969772,VON GONTEN 160-161 (ALLOCATION-G) 7SM,SUGG B 163-162 (ALLOCATION-H) 8NM,237.0867652,489.3973529,363.242059,668.365818,305.123759,46%
JAMES N 45-50 4614H,WCMP C,31.37928169,-101.7621632,31.35089,-101.7545,31.36508585,-101.7583316,TURNER AR UNIT A 27HK,POLARIS 4750 B 4HL,2000,2000,2000,2000,0,0%
BULLHEAD 721UN,WCMP B,31.341175,-101.4307528,31.37722778,-101.4312833,31.35920139,-101.4310181,BULLHEAD 721CN,TSRH UNIT 28S 7BU,256.9388107,330.2583256,293.5985681,354.1483598,60.54979168,17%
BULLHEAD 729LN,WCMP A,31.34106444,-101.4307075,31.37721111,-101.4303806,31.35913778,-101.4305441,TSRH UNIT 28S 8A,BULLHEAD 722AN,281.5974378,512.9770516,397.2872447,284.4705843,112.8166604,40%
BULLHEAD 722UN,WOLFCAMP SHALE,31.34113889,-101.4275278,31.37719167,-101.4278361,31.35916528,-101.427682,TSRH UNIT 28S 6H,BULLHEAD 724LN,1817.680169,2000,1908.840084,1821.441642,87.39844166,5%
